ID;DESC_CLASIFICACION;COD_BARRIO;BARRIO;COD_DISTRITO;DISTRITO;ESTADO;COORD_GIS_X;COORD_GIS_Y;SISTEMA_COORD;LATITUD;LONGITUD;TIPO_VIA;NOM_VIA;NUM_VIA;COD_POSTAL;DIRECCION_AUX;NDP;FECHA_INSTALACION;CODIGO_INTERNO;CONTRATO_COD;UBICACION;USO;MODELO
"1118924";"Fuentes de beber";"091";"CASA DE CAMPO";"09";"MONCLOA-ARAVACA";"OPERATIVO";"437855.77";"4475632.61";"ETRS89";40.42901050;-3.73263003;"CALLE";"RIBERA DEL MANZANARES";"123";"28008";"FUENTE DE LA COLONIA MANZANARES  (FUENTE DE LA TEJA Y EL SOPAPO)";"11051714";"2017-04-27 00:00:00.0";"FUE_09_0119";"FUE22";"VP";"PERSONAS";"PATRIMONIO_HISTORICO"
"3530207";"Fuentes de beber";"166";"VALDEFUENTES";"16";"HORTALEZA";"OPERATIVO";"448695.16";"4482723.21";"ETRS89";40.49362587;-3.60542308;"CALLE";"JULIO CANO LASSO";"47";"28055";"CONECTOR JORDI SOLE TURA";"31040778";"2017-05-16 00:00:00.0";"FUE_16_0152";"FUE22";"ZV";"PERSONAS";"MU-37A"
"3530621";"Fuentes de beber";"113";"SAN ISIDRO";"11";"CARABANCHEL";"OPERATIVO";"438194.03";"4471508.96";"ETRS89";40.39188807;-3.72824197;"CALLE";"OROYA";"3";"28019";"ALGORTA";"20003215";"2017-03-22 00:00:00.0";"FUE_11_0128";"FUE22";"ZV";"PERSONAS";"MU-37A"
"3531365";"Fuentes de beber";"087";"MIRASIERRA";"08";"FUENCARRAL-EL PARDO";"OPERATIVO";"438842.224";"4483134.84";"ETRS89";40.49666643;-3.72172440;"CALLE";"MARIA DE MAEZTU";"148";"28049";;"31049966";;"FUE_08_0147";"FUE22";"ZV";"PERSONAS";"EGEA"
"3531367";"Fuentes de beber";"087";"MIRASIERRA";"08";"FUENCARRAL-EL PARDO";"OPERATIVO";"438722.367";"4482907.29";"ETRS89";40.49460774;-3.72311672;"CALLE";"MARIA DE MAEZTU";"120";"28049";"JUNTO A JUEGOS MAYORES";"31050035";;"FUE_08_0148";"FUE22";"ZV";"PERSONAS";"EGEA"
"3531372";"Fuentes de beber";"087";"MIRASIERRA";"08";"FUENCARRAL-EL PARDO";"OPERATIVO";"438584.784";"4482766.8";"ETRS89";40.49333200;-3.72472655;"CALLE";"SENDA DEL INFANTE";"54";"28049";"C/V CALLE SENDA DEL INFANTE";"31037710";;"FUE_08_0149";"FUE22";"ZV";"PERSONAS";"EGEA"
"3531377";"Fuentes de beber";"084";"EL PILAR";"08";"FUENCARRAL-EL PARDO";"OPERATIVO";"440043.598";"4480524.799";"ETRS89";40.47324191;-3.70730113;"AVENIDA";"EL FERROL";"35";"28029";"CALLE RIBADAVIA 45";"11046306";;"FUE_08_0152";"FUE22";"ZV";"PERSONAS";"MU-37A"
"3531398";"Fuentes de beber";"093";"CIUDAD UNIVERSITARIA";"09";"MONCLOA-ARAVACA";"OPERATIVO";"439459.51";"4478045.57";"ETRS89";40.45086570;-3.71395457;"PASEO";"JUAN XXIII";"21";"28040";;"31014661";"2018-03-07 00:00:00.0";"FUE_09_0120";"FUE22";"ZV";"PERSONAS";"MU-37A"
"3558557";"Fuentes de beber";"166";"VALDEFUENTES";"16";"HORTALEZA";"OPERATIVO";"448618.65";"4482199.06";"ETRS89";40.48889931;-3.60628339;"CALLE";"ESTANISLAO PEREZ PITA";"70";"28055";"C/V C/ GUSTAVO PÉREZ PUIG";"31063044";;"FUE_16_0173";"FUE22";"ZV";"PERSONAS";"MU-37A"
"3568640";"Fuentes de beber";"102";"PUERTA DEL ANGEL";"10";"LATINA";"OPERATIVO";"438538.17";"4473705.18";"ETRS89";40.41169809;-3.72439943;"CALLE";"PABLO CASALS";"2";"28011";"CV CALLE JUAN  TORNERO";"11060052";"2017-10-16 00:00:00.0";"FUE_10_0110";"FUE22";"VP";"PERSONAS";"MU-37B"
"3568799";"Fuentes de beber";"152";"PUEBLO NUEVO";"15";"CIUDAD LINEAL";"OPERATIVO";"445907.19";"4475578.89";"ETRS89";40.42908908;-3.63771174;"CALLE";"LUIS RUIZ";"48";"28017";"EN TRAMO PEATONAL GREGORIO DONAS";"31030631";"2017-09-18 00:00:00.0";"FUE_15_0121";"FUE22";"VP";"PERSONAS";"MU-S37A"
"3568802";"Fuentes de beber";"153";"QUINTANA";"15";"CIUDAD LINEAL";"OPERATIVO";"444726.65";"4476271.89";"ETRS89";40.43525439;-3.65168880;"CALLE";"VIRGEN DE LLUC";"42";"28027";"PARQUE CALERO, JUNTO ÁREA CANINA";"11109420";"2017-10-13 00:00:00.0";"FUE_15_0123";"FUE22";"ZV";"PERSONAS_Y_MASCOTAS";"MIXTA NEPTUNO"
"3569053";"Fuentes de beber";"043";"FUENTE DEL BERRO";"04";"SALAMANCA";"OPERATIVO";"443585.18";"4475363.43";"ETRS89";40.42699387;-3.66506558;"CALLE";"RUFINO BLANCO";"27";"28028";"CALLE RAMON AGUINAGA 2";"31034502";"2017-10-26 00:00:00.0";"FUE_04_0040";"FUE22";"ZV";"PERSONAS";"MU-37A"
"3570475";"Fuentes de beber";"136";"NUMANCIA";"13";"PUENTE DE VALLECAS";"OPERATIVO";"444334.78";"4472631.59";"ETRS89";40.40243441;-3.65599017;"CALLE";"MARUJA GARCIA ROMERO";"14";"28038";;"31001905";"2016-12-05 00:00:00.0";"FUE_13_0153";"FUE22";"VP";"PERSONAS";"MU-S37A"
"3576057";"Fuentes de beber";"046";"CASTELLANA";"04";"SALAMANCA";"OPERATIVO";"441859";"4476052.63";"ETRS89";40.43308367;-3.68547693;"CALLE";"CLAUDIO COELLO";"121";"28006";"cv C/ JUAN BRAVO";"11019823";"2017-11-16 00:00:00.0";"FUE_04_0041";"FUE22";"VP";"PERSONAS";"FUENTE_ACCESIBLE"
"3576059";"Fuentes de beber";"124";"ALMENDRALES";"12";"USERA";"OPERATIVO";"440999.91";"4470330.46";"ETRS89";40.38147499;-3.69507431;"CALLE";"ANTONIO LOPEZ";"221";"28026";"C/V AÑAFIL";"11083665";"2017-11-16 00:00:00.0";"FUE_12_0067";"FUE22";"ZV";"PERSONAS";"MU-37A"
"3576086";"Fuentes de beber";"183";"ENSANCHE DE VALLECAS";"18";"VILLA DE VALLECAS";"OPERATIVO";"448211.53";"4469919.46";"ETRS89";40.37825185;-3.61008640;"CALLE";"REAL DE ARGANDA";"59";"28031";"DEL RAYO VALLECANO DE MADRID C/V REAL DE ARGANDA";"20076157";"2017-11-16 00:00:00.0";"FUE_18_0055";"FUE22";"VP";"PERSONAS";"MU-S37A"
"3852403";"Fuentes de beber";"091";"CASA DE CAMPO";"09";"MONCLOA-ARAVACA";"OPERATIVO";"437760.85";"4475828.39";"ETRS89";40.43076706;-3.73376814;"PLAZA";"CANCILLERIA";"6";"28008";"CON VUELTA CALLE LOECHES, JUNTO PISTA DEPORTIVA";"11052035";"2017-12-13 00:00:00.0";"FUE_09_0121";"FUE22";"ZV";"PERSONAS";"MU-37A"
"3852673";"Fuentes de beber";"075";"RIOS ROSAS";"07";"CHAMBERI";"OPERATIVO";"440534.352";"4476924.724";"ETRS89";40.44084623;-3.70117492;"CALLE";"SANTA ENGRACIA";"120 B";"28003";;"20065407";"2023-02-27 00:00:00.0";"FUE_07_0038";"FUE22";"VP";"PERSONAS";"MU-37A"
"4741279";"Fuentes de beber";"191";"CASCO HISTORICO DE VICALVARO";"19";"VICALVARO";"NO_OPERATIVO";"448570.15";"4472882.83";"ETRS89";40.40497013;-3.60610125;"CALLE";"LAGO VAN";"16";"28032";"San Cipriano con Calle de Ambroz junto a zona infantil";"31011786";"2018-02-09 00:00:00.0";"FUE_19_0102";"FUE22";"ZV";"PERSONAS";"MU-S37A"
"4742955";"Fuentes de beber";"151";"VENTAS";"15";"CIUDAD LINEAL";"OPERATIVO";"444779.88";"4475635.80";"ETRS89";40.42952768;-3.65100598;"CALLE";"SOR MARIA DE AGREDA";"2";"28017";"PRÓXIMO A C/ VEREDA DEL CARMEN, 6";"11104870";"2018-02-20 00:00:00.0";"FUE_15_0124";"FUE22";"ZV";"PERSONAS";"MU-37A"
"4784162";"Fuentes de beber";"166";"VALDEFUENTES";"16";"HORTALEZA";"OPERATIVO";"446126.12";"4481318.09";"ETRS89";40.48080508;-3.63561790;"CALLE";"TORENO";"3 B";"28055";"JUNTO PISTA DEPORTIVA";"31054377";"2019-04-29 00:00:00.0";"FUE_16_0153";"FUE22";"ZV";"PERSONAS";"CASTIZA"
"4784587";"Fuentes de beber";"087";"MIRASIERRA";"08";"FUENCARRAL-EL PARDO";"OPERATIVO";"438302.37";"4482528.05";"ETRS89";40.49116032;-3.72803566;"CALLE";"FEDERICA MONTSENY";"5";"28049";"ENTRE CALLE FEDERICA MONTSENY Y CALLE MARI PEPA COLOMER";"31049748";;"FUE_08_0156";"FUE22";"ZV";"PERSONAS";"EGEA"
"4784714";"Fuentes de beber";"051";"EL VISO";"05";"CHAMARTIN";"OPERATIVO";"442391.577";"4477006.802";"ETRS89";40.44171637;-3.67928482;"CALLE";"DUQUE DE SEVILLA";"1";"28002";"FRENTE A CALLE DUQUE DE SEVILLA 4";"20009442";;"FUE_05_0020";"FUE22";"VP";"PERSONAS";"MU-37A"
"4785335";"Fuentes de beber";"102";"PUERTA DEL ANGEL";"10";"LATINA";"OPERATIVO";"437294";"4473529.43";"ETRS89";40.41002206;-3.73904496;"PASEO";"EXTREMADURA";"156";"28011";"PLAZA DEL METRO ALTO DE EXTREMADURA";"11062514";"2018-06-01 00:00:00.0";"FUE_10_0111";"FUE22";"VP";"PERSONAS";"PIEDRA VP"
"4785336";"Fuentes de beber";"086";"VALVERDE";"08";"FUENCARRAL-EL PARDO";"OPERATIVO";"442924.48";"4483727.18";"ETRS89";40.50229326;-3.67360624;"AVENIDA";"CAMINO DE SANTIAGO";"25";"28050";"LAS TABLAS: ZONAS INFANTILES ENTRE LAS CALLES DE SAN JUAN DE ORTEGA Y AVDA CAMINO DE SANTIAGO";"31049645";"2018-06-01 00:00:00.0";"FUE_08_0157";"FUE22";"VP";"PERSONAS";"FUENTE_ACCESIBLE"
"4796175";"Fuentes de beber";"143";"MARROQUINA";"14";"MORATALAZ";"OPERATIVO";"444813.73";"4473693.65";"ETRS89";40.41203395;-3.65043840;"AVENIDA";"DOCTOR GARCIA TAPIA";"88";"28030";;"11101694";"2018-07-19 00:00:00.0";"FUE_14_0098";"FUE22";"VP";"PERSONAS";"PIEDRA VP"
"4796211";"Fuentes de beber";"012";"EMBAJADORES";"01";"CENTRO";"OPERATIVO";"440519.31";"4473379.46";"ETRS89";40.40890777;-3.70102061;"PLAZA";"LAVAPIES";"5";"28012";"FRENTE A ZONA INFANTIL";"11002854";"2018-07-18 00:00:00.0";"FUE_01_0047";"FUE22";"ZV";"PERSONAS";"MU-37A"
"4798068";"Fuentes de beber";"205";"ROSAS";"20";"SAN BLAS - CANILLEJAS";"OPERATIVO";"448434.99";"4476324.63";"ETRS89";40.43596770;-3.60797310;"CALLE";"LA ILIADA";"33";"28022";"FRENTE Nº 33";"11137298";"2017-08-09 00:00:00.0";"FUE_20_0113";"FUE22";"VP";"PERSONAS";"PIEDRA VP"
"4813505";"Fuentes de beber";"082";"FUENTELARREINA";"08";"FUENCARRAL-EL PARDO";"OPERATIVO";"437886.924";"4482104.68";"ETRS89";40.48731549;-3.73289607;"CALLE";"MAETZU";"1";"28049";;"31054536";;"FUE_08_0174";"FUE22";"ZV";"PERSONAS";"EGEA"
"4813558";"Fuentes de beber";"034";"IBIZA";"03";"RETIRO";"OPERATIVO";"442974.13";"4474728.73";"ETRS89";40.42123450;-3.67221176;"CALLE";"O'DONNELL";"48";"28009";"HOSPITAL MATERNO INFANTIL";"11012210";"2020-07-15 00:00:00.0";"FUE_03_0055";"FUE22";"VP";"PERSONAS";"CASTIZA"
"4828255";"Fuentes de beber";"141";"PAVONES";"14";"MORATALAZ";"OPERATIVO";"445856.13";"4472071.93";"ETRS89";40.39749296;-3.63801520;"CALLE";"FUENTE CARRANTONA";"4";"28030";;"20098128";"2018-09-10 00:00:00.0";"FUE_14_0099";"FUE22";"ZV";"PERSONAS";"MU-S37A"
"4939826";"Fuentes de beber";"044";"GUINDALERA";"04";"SALAMANCA";"OPERATIVO";"442821.18";"4476566.07";"ETRS89";40.43777569;-3.67417986;"CALLE";"PILAR DE ZARAGOZA";"98";"28028";"CV CALLE COSLADA";"11018787";"2018-10-05 00:00:00.0";"FUE_04_0042";"FUE22";"VP";"PERSONAS";"MU-37A"
"4940143";"Fuentes de beber";"174";"LOS ROSALES";"17";"VILLAVERDE";"OPERATIVO";"441474.57";"4467842.04";"ETRS89";40.35909136;-3.68925435;"AVENIDA";"FELICIDAD";"22";"28041";"C/V AVDA. OROVILLA, EN GLORIETA";"20061681";"2018-10-08 00:00:00.0";"FUE_17_0122";"FUE22";"ZV";"PERSONAS";"FUENTE_ACCESIBLE"
"4940161";"Fuentes de beber";"023";"CHOPERA";"02";"ARGANZUELA";"OPERATIVO";"440567.02";"4472108.50";"ETRS89";40.39746174;-3.70033969;"CALLE";"AGUILON";"15";"28045";;"11008805";"2018-10-10 00:00:00.0";"FUE_02_0054";"FUE22";"VP";"PERSONAS";"MU-37A"
"4940265";"Fuentes de beber";"088";"EL GOLOSO";"08";"FUENCARRAL-EL PARDO";"OPERATIVO";"440856.49";"4484389.54";"ETRS89";40.50811519;-3.69807286;"CALLE";"MONASTERIO DE OSEIRA";"3";"28049";;"31004449";;"FUE_08_0159";"FUE22";"ZV";"PERSONAS";"OTRO"
"4993815";"Fuentes de beber";"024";"LEGAZPI";"02";"ARGANZUELA";"OPERATIVO";"442305.61";"4471626.11";"ETRS89";40.39323836;-3.67981037;"CALLE";"EROS";"10";"28045";"CALLE ARIEL Nº 4";"31012250";"2019-01-30 00:00:00.0";"FUE_02_0055";"FUE22";"VP";"PERSONAS";"FUENTE_ACCESIBLE"
"4995323";"Fuentes de beber";"053";"CIUDAD JARDIN";"05";"CHAMARTIN";"OPERATIVO";"442945.67";"4477453.4";"ETRS89";40.44577775;-3.67279182;"CALLE";"MARCENADO";"8";"28002";;"11023855";"2019-02-07 00:00:00.0";"FUE_05_0077";"FUE22";"VP";"PERSONAS";"MU-37B"
"4995326";"Fuentes de beber";"143";"MARROQUINA";"14";"MORATALAZ";"OPERATIVO";"444944.4";"4473504";"ETRS89";40.41033412;-3.64888198;"CALLE";"CORREGIDOR JOSE DE PASAMONTE";"15";"28030";;"11101525";"2019-02-04 00:00:00.0";"FUE_14_0101";"FUE22";"VP";"PERSONAS";"PIEDRA VP"
"4995334";"Fuentes de beber";"183";"ENSANCHE DE VALLECAS";"18";"VILLA DE VALLECAS";"OPERATIVO";"450338.92";"4467747.91";"ETRS89";40.35881837;-3.58485713;"CALLE";"ARTE FIGURATIVO";"30";"28051";"CERRO  MILANO";"31036777";"2019-02-05 00:00:00.0";"FUE_18_0056";"FUE22";"VP";"PERSONAS";"MU-37B"
"4998042";"Fuentes de beber";"166";"VALDEFUENTES";"16";"HORTALEZA";"OPERATIVO";"448148.06";"4482661.39";"ETRS89";40.49303496;-3.61187373;"PLAZA";"FRANCISCO DE ASIS CABRERO";"6";"28055";;"31042741";;"FUE_16_0156";"FUE22";"ZV";"PERSONAS";"MU-37A"
"4998044";"Fuentes de beber";"166";"VALDEFUENTES";"16";"HORTALEZA";"OPERATIVO";"448405.12";"4482927.35";"ETRS89";40.49544689;-3.60886214;"AVENIDA";"SECUNDINO ZUAZO";"143";"28055";"PZA. FERNANDO GARCÍA MERCADAL";"31039717";;"FUE_16_0158";"FUE22";"ZV";"PERSONAS";"MU-37A"
"5003379";"Fuentes de beber";"144";"MEDIA LEGUA";"14";"MORATALAZ";"NO_OPERATIVO";"444327.30";"4473416.91";"ETRS89";40.40950852;-3.65614701;"CALLE";"ARROYO DE LA MEDIA LEGUA";"46";"28030";;"11101745";"2019-02-15 00:00:00.0";"FUE_14_0102";"FUE22";"ZV";"PERSONAS";"MU-37A"
"5005855";"Fuentes de beber";"172";"SAN CRISTOBAL";"17";"VILLAVERDE";"OPERATIVO";"441343.98";"4466000.96";"ETRS89";40.34249663;-3.69062299;"PLAZA";"PINAZO";"6";"28021";;"11126200";"2019-02-19 00:00:00.0";"FUE_17_0123";"FUE22";"ZV";"PERSONAS";"FUENTE_ACCESIBLE"
"5008250";"Fuentes de beber";"107";"AGUILAS";"10";"LATINA";"OPERATIVO";"434143.80";"4469777.65";"ETRS89";40.37598141;-3.77578169;"CALLE";"VALLE INCLAN";"68";"28044";"JUNTO PISTA DEPORTIVA";"11068019";"2019-03-08 00:00:00.0";"FUE_10_0112";"FUE22";"ZV";"PERSONAS";"CASTIZA"
"5024349";"Fuentes de beber";"013";"CORTES";"01";"CENTRO";"OPERATIVO";"440569.19";"4474037.7";"ETRS89";40.41484108;-3.70049427;"PLAZA";"PRINCIPE ALFONSO";"5";"28012";"PLAZA SANTA ANA, área infantil";"11003871";"2019-03-03 00:00:00.0";"FUE_01_0048";"FUE22";"ZV";"PERSONAS";"MU-37A"
"5024768";"Fuentes de beber";"025";"DELICIAS";"02";"ARGANZUELA";"OPERATIVO";"442083.73";"4471804.63";"ETRS89";40.39483117;-3.68244083;"CALLE";"AMALTEA";"6";"28045";"JUNTO ZONA INFANTIL";"31054586";;"FUE_02_0056";"FUE22";"ZV";"PERSONAS";"MU-37A"
"5024813";"Fuentes de beber";"142";"HORCAJO";"14";"MORATALAZ";"OPERATIVO";"446622.96";"4472779.60";"ETRS89";40.40391761;-3.62903896;"CALLE";"LUIS DE HOYOS SAINZ";"170";"28030";"ACERA ZV";"20131818";"2019-03-04 00:00:00.0";"FUE_14_0103";"FUE22";"ZV";"PERSONAS";"CASTIZA"
"5034852";"Fuentes de beber";"014";"JUSTICIA";"01";"CENTRO";"OPERATIVO";"441255.76";"4474770.46";"ETRS89";40.42149088;-3.69247011;"PASEO";"RECOLETOS";"17";"28004";"en Bulevar junto aseos públicos";"11004254";"2019-03-07 00:00:00.0";"FUE_01_0049";"FUE22";"ZV";"PERSONAS";"MU-37A"
"5034921";"Fuentes de beber";"181";"CASCO HISTORICO DE VALLECAS";"18";"VILLA DE VALLECAS";"NO_OPERATIVO";"446281.78";"4468429.31";"ETRS89";40.36470541;-3.63269268;"CALLE";"ISLA DE GUAM";"60";"28031";"AUDITORIO PARQUE DE LA GAVIA";"31042452";"2019-03-14 00:00:00.0";"FUE_18_0057";"FUE22";"ZV";"PERSONAS";"MU-37B"
"5036554";"Fuentes de beber";"014";"JUSTICIA";"01";"CENTRO";"OPERATIVO";"440894.84";"4474833.97";"ETRS89";40.42203745;-3.69673019;"CALLE";"AUGUSTO FIGUEROA";"41";"28004";"C/V VÁLGAME DIOS";"20005604";"2019-03-12 00:00:00.0";"FUE_01_0052";"FUE22";"VP";"PERSONAS";"MU-37A"
"5036621";"Fuentes de beber";"015";"UNIVERSIDAD";"01";"CENTRO";"OPERATIVO";"439731.8";"4475414.52";"ETRS89";40.42718388;-3.71049412;"PLAZA";"GUARDIAS DE CORPS";"4";"28015";"C/V CONDE DUQUE";"31037140";"2019-03-22 00:00:00.0";"FUE_01_0053";"FUE22";"ZV";"PERSONAS";"MU-37A"
"5069019";"Fuentes de beber";"022";"ACACIAS";"02";"ARGANZUELA";"OPERATIVO";"439501.78";"4472480.58";"ETRS89";40.40073691;-3.71292659;"PASEO";"YESERIAS";"1";"28005";"ZV JUNTO A PISTAS DE FRONTÓN";"11008353";"2019-04-05 00:00:00.0";"FUE_02_0058";"FUE22";"ZV";"PERSONAS";"MU-37A"
"5069765";"Fuentes de beber";"211";"ALAMEDA DE OSUNA";"21";"BARAJAS";"OPERATIVO";"449827.33";"4479028.15";"ETRS89";40.46040785;-3.59177125;"CALLE";"MANUEL AGUILAR MUÑOZ";"1";"28042";"'FTE COLEGIO, JUNTO PARADA DE AUTOBUS";"11139813";"2019-04-23 00:00:00.0";"FUE_21_0056";"FUE22";"ZV";"PERSONAS";"CASTIZA"
"5069859";"Fuentes de beber";"211";"ALAMEDA DE OSUNA";"21";"BARAJAS";"OPERATIVO";"449941.49";"4478519.42";"ETRS89";40.45583179;-3.59038472;"CALLE";"CARABELA";"21";"28042";"C/V C/ RIOJA";"11139688";"2019-04-09 00:00:00.0";"FUE_21_0055";"FUE22";"ZV";"PERSONAS";"FUENTE_ACCESIBLE"
"5074494";"Fuentes de beber";"056";"CASTILLA";"05";"CHAMARTIN";"OPERATIVO";"441760.91";"4479959.29";"ETRS89";40.46826976;-3.68699162;"CALLE";"AGUSTIN DE FOXA";"12";"28036";"CV C/ENRIQUE LARRETA";"20047722";"2019-04-15 00:00:00.0";"FUE_05_0078";"FUE22";"ZV";"PERSONAS";"MU-37A"
"5074608";"Fuentes de beber";"054";"HISPANOAMERICA";"05";"CHAMARTIN";"OPERATIVO";"443081.03";"4478449.06";"ETRS89";40.45475641;-3.67128499;"CALLE";"VICTOR DE LA SERNA";"26";"28016";"CV C/PINTOR RIBERA";"11025051";"2019-04-16 00:00:00.0";"FUE_05_0079";"FUE22";"ZV";"PERSONAS";"MU-37A"
"5106617";"Fuentes de beber";"215";"CORRALEJOS";"21";"BARAJAS";"OPERATIVO";"449870.28";"4479510.83";"ETRS89";40.46475871;-3.59130282;"CALLE";"BANDE";"31";"28042";"ZV c/v Bahía de Santoña";"20160536";"2019-05-24 00:00:00.0";"FUE_21_0057";"FUE22";"ZV";"PERSONAS";"CASTIZA"
"5106864";"Fuentes de beber";"214";"TIMON";"21";"BARAJAS";"OPERATIVO";"449966.77";"4480134.59";"ETRS89";40.47038373;-3.59021392;"GLORIETA";"PLAYA DE SAN LORENZO";"4";"28042";"junto entrada Colegio Margaret Thatcher";"31050691";"2019-05-27 00:00:00.0";"FUE_21_0059";"FUE22";"VP";"PERSONAS";"CASTIZA"
"5108929";"Fuentes de beber";"012";"EMBAJADORES";"01";"CENTRO";"OPERATIVO";"440133.39";"4473044.21";"ETRS89";40.40586001;-3.70553708;"RONDA";"TOLEDO";"9";"28005";"Parque Casino de la Reina";"20150618";"2019-05-24 00:00:00.0";"FUE_01_0063";"FUE22";"ZV";"PERSONAS_Y_MASCOTAS";"MIXTA NEPTUNO"
"5109125";"Fuentes de beber";"012";"EMBAJADORES";"01";"CENTRO";"OPERATIVO";"440116.53";"4473053.82";"ETRS89";40.40594537;-3.70573667;"RONDA";"TOLEDO";"7";"28005";"Parque Casino de la Reina";"11001954";"2019-05-24 00:00:00.0";"FUE_01_0064";"FUE22";"ZV";"PERSONAS_Y_MASCOTAS";"MIXTA NEPTUNO"
"5110283";"Fuentes de beber";"014";"JUSTICIA";"01";"CENTRO";"OPERATIVO";"440864.72";"4475031.35";"ETRS89";40.42381340;-3.69710358;"CALLE";"SAN LUCAS";"1";"28004";"C/V SAN GREGORIO";"31037827";;"FUE_01_0062";"FUE22";"ZV";"PERSONAS";"MU-37A"
"5110430";"Fuentes de beber";"013";"CORTES";"01";"CENTRO";"OPERATIVO";"441051.2";"4474485.1";"ETRS89";40.41890576;-3.69485482;"CALLE";"ALCALA";"48";"28014";"PUERTA BANCO DE ESPAÑA";"11004016";"2019-06-06 00:00:00.0";"FUE_01_0060";"FUE22";"VP";"PERSONAS";"FUENTE_ACCESIBLE"
"5124718";"Fuentes de beber";"086";"VALVERDE";"08";"FUENCARRAL-EL PARDO";"OPERATIVO";"441316.16";"4482984.29";"ETRS89";40.49548884;-3.69251754;"CALLE";"BRAILLE";"7";"28034";"PARQUE FUENTE CHICA";"11048492";"2019-06-11 00:00:00.0";"FUE_08_0163";"FUE22";"ZV";"PERSONAS";"CASTIZA"
"5125679";"Fuentes de beber";"012";"EMBAJADORES";"01";"CENTRO";"OPERATIVO";"440295.29";"4473761.70";"ETRS89";40.41233514;-3.70369652;"PLAZA";"TIRSO DE MOLINA";"2";"28012";"Junto área infantil";"11001662";"2019-06-06 00:00:00.0";"FUE_01_0057";"FUE22";"ZV";"PERSONAS";"MU-37A"
"5125682";"Fuentes de beber";"014";"JUSTICIA";"01";"CENTRO";"OPERATIVO";"441185.92";"4474584.23";"ETRS89";40.41980830;-3.69327609;"PASEO";"RECOLETOS";"1";"28004";"c/v Pza. Cibeles en bulevar junto paradas de autobús";"20005400";"2019-06-07 00:00:00.0";"FUE_01_0056";"FUE22";"ZV";"PERSONAS";"MU-37A"
"5154582";"Fuentes de beber";"086";"VALVERDE";"08";"FUENCARRAL-EL PARDO";"OPERATIVO";"443254.44";"4484389.53";"ETRS89";40.50828260;-3.66977165;"CALLE";"CAMINO DE SANTIAGO";"50";"28050";"C/V AV. SANTO DOMINGO DE LA CALZADA (METRO LIGERO)";"31026259";"2019-06-24 00:00:00.0";"FUE_08_0166";"FUE22";"VP";"PERSONAS";"CASTIZA"
"5176229";"Fuentes de beber";"134";"PALOMERAS SURESTE";"13";"PUENTE DE VALLECAS";"OPERATIVO";"445919.24";"4470134.89";"ETRS89";40.38004697;-3.63710711;"CALLE";"MAQUINILLA";"13";"28031";;"31015182";"2019-07-09 00:00:00.0";"FUE_13_0156";"FUE22";"ZV";"PERSONAS";"CASTIZA"
"5176256";"Fuentes de beber";"136";"NUMANCIA";"13";"PUENTE DE VALLECAS";"OPERATIVO";"443954.28";"4472316.69";"ETRS89";40.39957208;-3.66044619;"CALLE";"SIERRA TOLEDANA";"1";"28038";"c/v CAMINO DE VALDERRIBAS";"11100335";"2019-07-12 00:00:00.0";"FUE_13_0157";"FUE22";"ZV";"PERSONAS";"CASTIZA"
"5176269";"Fuentes de beber";"135";"PORTAZGO";"13";"PUENTE DE VALLECAS";"OPERATIVO";"444973.85";"4470869.78";"ETRS89";40.38660543;-3.64830723;"CALLE";"PEDRO LABORDE";"31";"28018";"PLAZA DE LA CONSTITUCIÓN";"11097998";"2019-07-12 00:00:00.0";"FUE_13_0158";"FUE22";"ZV";"PERSONAS";"CASTIZA"
"5176279";"Fuentes de beber";"115";"PUERTA BONITA";"11";"CARABANCHEL";"OPERATIVO";"437115.4";"4469834.76";"ETRS89";40.37672540;-3.74078491;"CALLE";"NUESTRA SEÑORA DE LA ANTIGUA";"52 C";"28025";;"31052352";"2019-07-19 00:00:00.0";"FUE_11_0132";"FUE22";"ZV";"PERSONAS";"CASTIZA"
"5176281";"Fuentes de beber";"114";"VISTA ALEGRE";"11";"CARABANCHEL";"OPERATIVO";"437209.280";"4470762.830";"ETRS89";40.38509295;-3.73977054;"PASEO";"MARCELINO CAMACHO";"6";"28025";"ENTRE FAROLA 4 Y FUENTE ORNAMENTAL, EN PARQUE MARCELINO CAMACHO";"20022926";"2019-07-19 00:00:00.0";"FUE_11_0133";"FUE22";"ZV";"PERSONAS";"CASTIZA"
"5176423";"Fuentes de beber";"011";"PALACIO";"01";"CENTRO";"OPERATIVO";"439695.29";"4474251.51";"ETRS89";40.41670432;-3.71081421;"PLAZA";"SANTIAGO";"4";"28013";"C/V SANTA CLARA";"11000328";"2019-07-26 00:00:00.0";"FUE_01_0084";"FUE22";"VP";"PERSONAS";"MU-37A"
"5176425";"Fuentes de beber";"011";"PALACIO";"01";"CENTRO";"OPERATIVO";"439881.49";"4474004.73";"ETRS89";40.41449468;-3.70859630;"PLAZA";"CONDE DE BARAJAS";"6";"28005";;"11000528";"2019-07-22 00:00:00.0";"FUE_01_0065";"FUE22";"VP";"PERSONAS";"MU-37A"
"5176426";"Fuentes de beber";"011";"PALACIO";"01";"CENTRO";"OPERATIVO";"439587.39";"4473309.42";"ETRS89";40.40820971;-3.71199648;"PLAZA";"VIRGEN DE LA PALOMA";"1";"28005";"C/V CALLE LA PALOMA 21";"20105760";"2019-07-15 00:00:00.0";"FUE_01_0066";"FUE22";"ZV";"PERSONAS";"MU-37A"
"5176428";"Fuentes de beber";"015";"UNIVERSIDAD";"01";"CENTRO";"OPERATIVO";"439491.54";"4475691.51";"ETRS89";40.42966168;-3.71335267;"CALLE";"SANTA CRUZ DE MARCENADO";"31";"28015";;"11006509";"2019-07-29 00:00:00.0";"FUE_01_0067";"FUE22";"VP";"PERSONAS";"MU-37A"
"5176474";"Fuentes de beber";"014";"JUSTICIA";"01";"CENTRO";"OPERATIVO";"440912.85";"4475331.47";"ETRS89";40.42652045;-3.69656414;"PLAZA";"SANTA BARBARA";"10";"28004";;"11005150";"2019-07-11 00:00:00.0";"FUE_01_0069";"FUE22";"ZV";"PERSONAS";"MU-37A"
"5176476";"Fuentes de beber";"011";"PALACIO";"01";"CENTRO";"OPERATIVO";"439795.53";"4474038.00";"ETRS89";40.41478818;-3.70961255;"PLAZA";"CONDE DE MIRANDA";"2";"28005";;"11000533";"2019-07-19 00:00:00.0";"FUE_01_0070";"FUE22";"VP";"PERSONAS";"MU-37A"
"5176481";"Fuentes de beber";"183";"ENSANCHE DE VALLECAS";"18";"VILLA DE VALLECAS";"OPERATIVO";"448271.28";"4469511.98";"ETRS89";40.37458469;-3.60934949;"AVENIDA";"LA GAVIA";"13";"28051";"c/v VILLAMAYOR DE SANTIAGO 13";"31037292";"2019-07-29 00:00:00.0";"FUE_18_0060";"FUE22";"ZV";"PERSONAS";"CASTIZA"
"5176483";"Fuentes de beber";"183";"ENSANCHE DE VALLECAS";"18";"VILLA DE VALLECAS";"OPERATIVO";"447653.97";"4468845.78";"ETRS89";40.36854455;-3.61656613;"AVENIDA";"LA GAVIA";"66";"28051";"C/V AV. CERRO MILANO";"31045482";"2019-07-29 00:00:00.0";"FUE_18_0062";"FUE22";"ZV";"PERSONAS";"CASTIZA"
"5176484";"Fuentes de beber";"183";"ENSANCHE DE VALLECAS";"18";"VILLA DE VALLECAS";"OPERATIVO";"446811.8";"4469078.93";"ETRS89";40.37059162;-3.62650465;"CALLE";"LA GRANJA DE SAN ILDEFONSO";"1";"28051";"C/V PUERTO DE PORZUNA";"31041867";"2019-07-25 00:00:00.0";"FUE_18_0063";"FUE22";"ZV";"PERSONAS";"CASTIZA"
"5181104";"Fuentes de beber";"093";"CIUDAD UNIVERSITARIA";"09";"MONCLOA-ARAVACA";"OPERATIVO";"439107.95";"4476774.33";"ETRS89";40.43938819;-3.71797834;"PLAZA";"CRISTO REY";"6";"28040";;"31011241";"2019-08-16 00:00:00.0";"FUE_09_0124";"FUE22";"VP";"PERSONAS";"MU-37A"
"5181105";"Fuentes de beber";"091";"CASA DE CAMPO";"09";"MONCLOA-ARAVACA";"OPERATIVO";"438951.98";"4474927.95";"ETRS89";40.42274379;-3.71963992;"PASEO";"REY";"26";"28008";"C/V PASEO DE LA ROSALEDA";"11052179";"2019-08-21 00:00:00.0";"FUE_09_0125";"FUE22";"VP";"PERSONAS";"MU-37A"
"5188209";"Fuentes de beber";"091";"CASA DE CAMPO";"09";"MONCLOA-ARAVACA";"OPERATIVO";"438671.01";"4475217.8";"ETRS89";40.42533422;-3.72297972;"PASEO";"REY";"34";"28008";;"11052117";"2019-08-30 00:00:00.0";"FUE_09_0126";"FUE22";"VP";"PERSONAS";"MU-37A"
"5188221";"Fuentes de beber";"097";"ARAVACA";"09";"MONCLOA-ARAVACA";"OPERATIVO";"433129.48";"4477469.41";"ETRS89";40.44519038;-3.78853761;"AVENIDA";"EUROPA";"36";"28023";;"20059088";"2019-09-04 00:00:00.0";"FUE_09_0131";"FUE22";"ZV";"PERSONAS";"MU-37A"
"5191205";"Fuentes de beber";"031";"PACIFICO";"03";"RETIRO";"OPERATIVO";"442463.89";"4473180.96";"ETRS89";40.40725625;-3.67808601;"AVENIDA";"MEDITERRANEO";"2";"28007";"C/V PLAZA MARIANO DE CAVIA";"11010851";"2019-09-10 00:00:00.0";"FUE_03_0050";"FUE22";"ZV";"PERSONAS";"MU-37A"
"5192389";"Fuentes de beber";"206";"REJAS";"20";"SAN BLAS-CANILLEJAS";"OPERATIVO";"451772.97";"4477302.24";"ETRS89";40.44497493;-3.56869302;"AVENIDA";"FERMINA SEVILLANO";"21 B";"28022";"PRÓXIMO A C/ NOVIEMBRE, 28";"31046744";"2019-09-30 00:00:00.0";"FUE_20_0114";"FUE22";"VP";"PERSONAS";"MU-37A"
"5192403";"Fuentes de beber";"203";"AMPOSTA";"20";"SAN BLAS - CANILLEJAS";"OPERATIVO";"447279.31";"4475486.15";"ETRS89";40.42834171;-3.62152875;"CALLE";"ALBERIQUE";"10 G";"28037";"EN BULEVAR, ENTRE ÁREAS INFANTILES";"31046947";"2019-09-20 00:00:00.0";"FUE_20_0115";"FUE22";"ZV";"PERSONAS";"CASTIZA"
"5195509";"Fuentes de beber";"073";"TRAFALGAR";"07";"CHAMBERI";"OPERATIVO";"440154.42";"4475720.52";"ETRS89";40.42997097;-3.70554107;"GLORIETA";"RUIZ JIMENEZ";"4";"28015";"C/V SAN BERNARDO";"11039833";;"FUE_07_0024";"FUE22";"VP";"PERSONAS";"MU-37A"
"5196347";"Fuentes de beber";"076";"VALLEHERMOSO";"07";"CHAMBERI";"OPERATIVO";"440295.73";"4477559.89";"ETRS89";40.44655098;-3.70404807;"GLORIETA";"CUATRO CAMINOS";"1";"28020";"C/V BRAVO MURILLO";"11042383";"2019-10-04 00:00:00.0";"FUE_07_0029";"FUE22";"VP";"PERSONAS";"MU-37A"
"5202129";"Fuentes de beber";"013";"CORTES";"01";"CENTRO";"OPERATIVO";"440722.03";"4473750.16";"ETRS89";40.41226168;-3.69866613;"CALLE";"ATOCHA";"73";"28012";"C/V AMOR DE DIOS";"20005144";"2019-10-15 00:00:00.0";"FUE_01_0071";"FUE22";"VP";"PERSONAS";"MU-37A"
"5202135";"Fuentes de beber";"012";"EMBAJADORES";"01";"CENTRO";"OPERATIVO";"440767.0";"4473568.56";"ETRS89";40.41062894;-3.69811923;"CALLE";"SANTA ISABEL";"34";"28012";"C/V BUENAVISTA";"11002906";"2019-10-15 00:00:00.0";"FUE_01_0072";"FUE22";"VP";"PERSONAS";"MU-37A"
"5202144";"Fuentes de beber";"012";"EMBAJADORES";"01";"CENTRO";"OPERATIVO";"441169.8";"4473328.31";"ETRS89";40.40849321;-3.69334995;"CALLE";"DOCTOR DRUMEN";"7";"28012";"C/V PLAZA JUAN GOYTISOLO";"20004914";"2019-10-15 00:00:00.0";"FUE_01_0074";"FUE22";"ZV";"PERSONAS";"MU-37A"
"5203238";"Fuentes de beber";"114";"VISTA ALEGRE";"11";"CARABANCHEL";"OPERATIVO";"436768.27";"4471059.01";"ETRS89";40.38772772;-3.74499529;"CALLE";"EL ESPINAR";"1";"28047";"ZONA ESTANCIAL";"11074696";"2019-10-15 00:00:00.0";"FUE_11_0134";"FUE22";"VP";"PERSONAS";"FUENTE_ACCESIBLE"
"5205476";"Fuentes de beber";"012";"EMBAJADORES";"01";"CENTRO";"OPERATIVO";"440360.55";"4473284.54";"ETRS89";40.40804133;-3.70288268;"PLAZA";"LA CORRALA";"1";"28012";"CALLE MESON DE PAREDES, 63";"31025779";"2019-10-15 00:00:00.0";"FUE_01_0075";"FUE22";"ZV";"PERSONAS";"MU-37A"
"5205481";"Fuentes de beber";"014";"JUSTICIA";"01";"CENTRO";"OPERATIVO";"440972.65";"4474618.41";"ETRS89";40.42010111;-3.69579303;"PLAZA";"REY";"1 B";"28004";"CALLE BARQUILLO FRENTE AL Nº 6";"31037790";;"FUE_01_0080";"FUE22";"ZV";"PERSONAS";"FUENTE_ACCESIBLE"
"5205482";"Fuentes de beber";"151";"VENTAS";"15";"CIUDAD LINEAL";"OPERATIVO";"444458.84";"4474733.37";"ETRS89";40.42137673;-3.65471175;"CALLE";"POETA BLAS DE OTERO";"11";"28017";"POSTERIOR";"11103555";"2019-10-15 00:00:00.0";"FUE_15_0125";"FUE22";"ZV";"PERSONAS";"CASTIZA"
"5205488";"Fuentes de beber";"159";"COSTILLARES";"15";"CIUDAD LINEAL";"OPERATIVO";"442993.45";"4480691.56";"ETRS89";40.47495187;-3.67251927;"CALLE";"SERRANO GALVACHE";"40";"28033";"FRENTE AL 40";"20140985";"2019-10-31 00:00:00.0";"FUE_15_0130";"FUE22";"ZV";"PERSONAS";"CASTIZA"
"5205489";"Fuentes de beber";"155";"SAN PASCUAL";"15";"CIUDAD LINEAL";"OPERATIVO";"445004.28";"4477129.4";"ETRS89";40.44299771;-3.64848989;"CALLE";"JUAN PEREZ ZUÑIGA";"31";"28027";"FRENTE AL Nº 22";"11111027";;"FUE_15_0131";"FUE22";"ZV";"PERSONAS";"CASTIZA"
"5209649";"Fuentes de beber";"042";"GOYA";"04";"SALAMANCA";"OPERATIVO";"443161.45";"4475317.82";"ETRS89";40.42655415;-3.67005647;"CALLE";"TOMAS LOPEZ";"7";"28009";;"31014877";;"FUE_04_0043";"FUE22";"ZV";"PERSONAS";"OTRO"
"5209650";"Fuentes de beber";"043";"FUENTE DEL BERRO";"04";"SALAMANCA";"OPERATIVO";"443326.830";"4475469.860";"ETRS89";40.42793508;-3.66812052;"PLAZA";"MANUEL BECERRA";"15 B";"28028";"C/V C/ DOCTOR ESQUERDO, JUNTO FAROLA 56";"11016814";;"FUE_04_0044";"FUE22";"VP";"PERSONAS";"MU-37A"
"5209652";"Fuentes de beber";"045";"LISTA";"04";"SALAMANCA";"OPERATIVO";"442631.73";"4476392.7";"ETRS89";40.43620084;-3.67639782;"CALLE";"FRANCISCO SILVELA";"73";"28028";"CV C/GENERAL ORAA";"11018901";;"FUE_04_0047";"FUE22";"VP";"PERSONAS";"MU-37A"
"5211482";"Fuentes de beber";"166";"VALDEFUENTES";"16";"HORTALEZA";"OPERATIVO";"445252.86";"4482169.37";"ETRS89";40.48841670;-3.64599375;"AVENIDA";"NICETO ALCALA ZAMORA";"33";"28050";"FRENTE AL Nº 33. Parque infantil en la mediana.";"31010098";"2019-11-15 00:00:00.0";"FUE_16_0160";"FUE22";"ZV";"PERSONAS";"CASTIZA"
"5211484";"Fuentes de beber";"164";"PINAR DEL REY";"16";"HORTALEZA";"OPERATIVO";"445981.48";"4480508.67";"ETRS89";40.47350402;-3.63725535;"CALLE";"MANIZALES";"15";"28033";"CV C/ ARACATACA. PISTAS DEPORTIVAS";"31050824";"2019-11-14 00:00:00.0";"FUE_16_0162";"FUE22";"ZV";"PERSONAS";"CASTIZA"
"5211485";"Fuentes de beber";"164";"PINAR DEL REY";"16";"HORTALEZA";"OPERATIVO";"445138.43";"4480317.58";"ETRS89";40.47172733;-3.64718367;"CALLE";"VALDETORRES DE JARAMA";"2";"28043";;"11118515";"2019-11-18 00:00:00.0";"FUE_16_0163";"FUE22";"ZV";"PERSONAS";"CASTIZA"
"5211506";"Fuentes de beber";"165";"APOSTOL SANTIAGO";"16";"HORTALEZA";"OPERATIVO";"444103.47";"4480928.15";"ETRS89";40.47715863;-3.65944580;"CALLE";"SOMONTIN";"96";"28033";"JUNTO ÁREA INFANTIL";"11121778";"2019-11-18 00:00:00.0";"FUE_16_0164";"FUE22";"ZV";"PERSONAS";"CASTIZA"
"5211515";"Fuentes de beber";"162";"PIOVERA";"16";"HORTALEZA";"OPERATIVO";"444812.69";"4478493.43";"ETRS89";40.45527291;-3.65086744;"CALLE";"ANGEL CAVERO";"1";"28043";"C/V C/ PUERTO DE SANTA MARÍA";"11114818";"2019-11-25 00:00:00.0";"FUE_16_0165";"FUE22";"ZV";"PERSONAS";"CASTIZA"
"5212100";"Fuentes de beber";"062";"CUATRO CAMINOS";"06";"TETUAN";"OPERATIVO";"440334.18";"4477638.93";"ETRS89";40.44726576;-3.70360211;"GLORIETA";"CUATRO CAMINOS";"7";"28020";"C/V CALLE DE LOS ARTISTAS";"31023336";"2019-11-25 00:00:00.0";"FUE_06_0084";"FUE22";"VP";"PERSONAS";"MU-37A"
"5212696";"Fuentes de beber";"101";"LOS CARMENES";"10";"LATINA";"OPERATIVO";"437606.10";"4472480.10";"ETRS89";40.40059270;-3.73526400;"AVENIDA";"ANGEL SANZ BRIZ";"4";"28047";"CERCA DE AREA CANINA";"31067192";"2023-07-07 00:00:00.0";"FUE_10_0116";"FUE22";"ZV";"MASCOTAS";"BEBEDERO TERRIER"
"5212747";"Fuentes de beber";"061";"BELLAS VISTAS";"06";"TETUAN";"OPERATIVO";"440100.63";"4478114.02";"ETRS89";40.45152877;-3.70640084;"CALLE";"TENERIFE";"29";"28039";"FRENTE AL Nº 42";"11027994";"2019-11-29 00:00:00.0";"FUE_06_0085";"FUE22";"ZV";"PERSONAS";"MU-37A"
"5212748";"Fuentes de beber";"064";"ALMENARA";"06";"TETUAN";"OPERATIVO";"441501.69";"4480518.87";"ETRS89";40.47329247;-3.69010078;"CALLE";"LUIS ESTEBAN";"27";"28029";"C/V MAGNOLIAS";"11032079";"2019-11-29 00:00:00.0";"FUE_06_0086";"FUE22";"ZV";"PERSONAS";"CASTIZA"
"5214770";"Fuentes de beber";"171";"VILLAVERDE ALTO C.H.";"17";"VILLAVERDE";"OPERATIVO";"439179.69";"4466610.17";"ETRS89";40.34782978;-3.71616179;"PASEO";"FERROVIARIOS";"2";"28021";"PARQUE DE PLATA Y CASTAÑAR JUEGOS INFANTILES CASETA";"31054963";;"FUE_17_0124";"FUE22";"ZV";"PERSONAS";"MU-P37C"
"5216568";"Fuentes de beber";"065";"VALDEACEDERAS";"06";"TETUAN";"OPERATIVO";"439725.044";"4480019.064";"ETRS89";40.46866300;-3.71101076;"CALLE";"CAPITAN BLANCO ARGIBAY";"3";"28029";"PARQUE AGUSTÍN RODRIGUEZ SHAGÚN, AREA CANINA JUNTO APARCAMIENTO";"11033851";"2019-12-16 00:00:00.0";"FUE_06_0092";"FUE22";"ZV";"PERSONAS";"MIXTA NEPTUNO"
"5219893";"Fuentes de beber";"072";"ARAPILES";"07";"CHAMBERI";"OPERATIVO";"439682.14";"4476117.22";"ETRS89";40.43351051;-3.71114619;"CALLE";"GALILEO";"35";"28015";"Parque José Luis Sampedro";"31044128";"2019-12-26 00:00:00.0";"FUE_07_0031";"FUE22";"ZV";"PERSONAS";"METROPOLIS"
"5220270";"Fuentes de beber";"127";"PRADOLONGO";"12";"USERA";"OPERATIVO";"439581.46";"4469662.28";"ETRS89";40.37535404;-3.71172038;"AVENIDA";"RAFAELA YBARRA";"85";"28026";"JUNTO CIRCUITO BICI RAFAELA YBARRA";"20153855";"2020-01-10 00:00:00.0";"FUE_12_0074";"FUE22";"ZV";"PERSONAS";"MU-37A"
"5220279";"Fuentes de beber";"127";"PRADOLONGO";"12";"USERA";"OPERATIVO";"439997.25";"4469774.06";"ETRS89";40.37639105;-3.70683332;"CALLE";"CRISTO DE LA VICTORIA";"225";"28026";"JUNTO A PASEO PINOS TEMPLETE";"11085930";"2020-01-10 00:00:00.0";"FUE_12_0076";"FUE22";"ZV";"PERSONAS";"MU-37A"
"5220281";"Fuentes de beber";"127";"PRADOLONGO";"12";"USERA";"OPERATIVO";"440148.01";"4469911.53";"ETRS89";40.37764029;-3.70507040;"CALLE";"CRISTO DE LA VICTORIA";"199";"28026";"JUNTO JARDIN BOTÁNICO";"11085922";"2023-06-26 00:00:00.0";"FUE_12_0077";"FUE22";"ZV";"PERSONAS_Y_MASCOTAS";"MIXTA ESTELA"
"5229175";"Fuentes de beber";"134";"PALOMERAS SURESTE";"13";"PUENTE DE VALLECAS";"OPERATIVO";"445250.860";"4470509.040";"ETRS89";40.38337391;-3.64501275;"AVENIDA";"RAFAEL ALBERTI";"51";"28018";"Parque del Campo de la Paloma PLAZA CENTRAL";"11096233";"2020-01-16 00:00:00.0";"FUE_13_0160";"FUE22";"ZV";"PERSONAS";"MU-37A"
"5229238";"Fuentes de beber";"134";"PALOMERAS SURESTE";"13";"PUENTE DE VALLECAS";"OPERATIVO";"445228.64";"4470595.82";"ETRS89";40.38415422;-3.64528197;"CALLE";"CAMPO DE LA PALOMA";"22";"28018";"Parque del Campo de la Paloma ZONA INFANTIL";"11096275";"2020-01-16 00:00:00.0";"FUE_13_0161";"FUE22";"ZV";"PERSONAS";"MU-37A"
"5229300";"Fuentes de beber";"134";"PALOMERAS SURESTE";"13";"PUENTE DE VALLECAS";"OPERATIVO";"445253.990";"4470644.960";"ETRS89";40.38459857;-3.64498756;"CALLE";"GERARDO DIEGO";"15";"28018";"PARQUE CAMPO DE LA PALOMA JUNTO JUEGOS MAYORES";"20035240";"2020-01-16 00:00:00.0";"FUE_13_0162";"FUE22";"ZV";"PERSONAS";"MU-37A"
"5232822";"Fuentes de beber";"173";"BUTARQUE";"17";"VILLAVERDE";"OPERATIVO";"442419.13";"4467154.32";"ETRS89";40.35296171;-3.67806894;"AVENIDA";"LOS ROSALES";"123";"28021";"PARQUE, JUNTO A PISTAS DEP.";"31000336";"2020-01-21 00:00:00.0";"FUE_17_0128";"FUE22";"ZV";"PERSONAS";"MU-37A"
"5237487";"Fuentes de beber";"211";"ALAMEDA DE OSUNA";"21";"BARAJAS";"OPERATIVO";"450391.1";"4479484.87";"ETRS89";40.46455611;-3.58515779;"AVENIDA";"LOGROÑO";"74";"28042";"'APR 21.03";"11139811";;"FUE_21_0061";"FUE22";"ZV";"PERSONAS";"MU-37A"
"5241774";"Fuentes de beber";"174";"LOS ROSALES";"17";"VILLAVERDE";"OPERATIVO";"441731.6";"4467446.25";"ETRS89";40.35554384;-3.68619136;"CALLE";"AUGUSTOBRIGA";"13";"28021";"c/v calle Clara Schumann";"31030218";"2020-01-27 00:00:00.0";"FUE_17_0127";"FUE22";"ZV";"PERSONAS";"MU-37A"
"5242892";"Fuentes de beber";"102";"PUERTA DEL ANGEL";"10";"LATINA";"OPERATIVO";"437432.65";"4473211.21";"ETRS89";40.40716583;-3.73737969;"PLAZA";"PATRIARCA EIJO Y GARAY";"2";"28011";"JUNTO ZONA INFANTIL";"11062431";"2020-01-14 00:00:00.0";"FUE_10_0117";"FUE22";"ZV";"PERSONAS_Y_MASCOTAS";"MIXTA TERRIER"
"5249643";"Fuentes de beber";"064";"ALMENARA";"06";"TETUAN";"OPERATIVO";"440879.731";"4480412.91";"ETRS89";40.47229390;-3.69742760;"CALLE";"PADRE RUBIO";"84";"28029";"ÁREA CANINA";"11032586";"2020-01-13 00:00:00.0";"FUE_06_0089";"FUE22";"ZV";"PERSONAS";"BEBEDERO NEPTUNO"
"5270041";"Fuentes de beber";"163";"CANILLAS";"16";"HORTALEZA";"OPERATIVO";"446874.29";"4479304.51";"ETRS89";40.46271390;-3.62662266;"CALLE";"SILVANO";"157";"28043";"C/V C/ JUAN CLEMENTE NUÑEZ";"20065860";"2020-02-11 00:00:00.0";"FUE_16_0167";"FUE22";"VP";"PERSONAS";"MU-37A"
"5270342";"Fuentes de beber";"205";"ROSAS";"20";"SAN BLAS - CANILLEJAS";"OPERATIVO";"448724.02";"4476364.45";"ETRS89";40.43634429;-3.60456871;"AVENIDA";"LUIS ARAGONES";"12";"28022";"ACCESO LATERAL ESTADIO WANDA";"31056316";"2020-02-18 00:00:00.0";"FUE_20_0124";"FUE22";"VP";"PERSONAS";"MU-37A"
"5272336";"Fuentes de beber";"022";"ACACIAS";"02";"ARGANZUELA";"OPERATIVO";"439653.81";"4472810.01";"ETRS89";40.40371560;-3.71116639;"TRAVESIA";"SAN ISIDORO DE SEVILLA";"7 B";"28005";"PASEO OLMOS 24";"31012876";"2020-02-10 00:00:00.0";"FUE_02_0062";"FUE22";"ZV";"PERSONAS";"CASTIZA"
"529389";"Fuentes de beber";"062";"CUATRO CAMINOS";"06";"TETUAN";"OPERATIVO";"440740.97";"4478248.92";"ETRS89";40.45278991;-3.69886235;"AVENIDA";"GENERAL PERON";"4";"28020";"JARDINES PERÓN, JUNTO A ZONA INFANTIL";"11029769";"2023-07-25 00:00:00.0";"FUE_06_0056";"FUE22";"ZV";"PERSONAS";"METROPOLIS"
"529393";"Fuentes de beber";"065";"VALDEACEDERAS";"06";"TETUAN";"OPERATIVO";"440169.64";"4480098.76";"ETRS89";40.46941308;-3.70577415;"PASEO";"DIRECCION";"283";;;"31028415";;"FUE_06_0067";"FUE22";"VP";"PERSONAS";"MU-37A"
"529398";"Fuentes de beber";"014";"JUSTICIA";"01";"CENTRO";"OPERATIVO";"441199.4";"4475222.8";"ETRS89";40.42556180;-3.69317625;"PLAZA";"VILLA DE PARIS";"1";"28004";"Plaza Villa de Paris";"11005131";;"FUE_01_0005";"FUE22";"ZV";"PERSONAS";"MU-37A"
"529399";"Fuentes de beber";"015";"UNIVERSIDAD";"01";"CENTRO";"OPERATIVO";"440248.16";"4475384.04";"ETRS89";40.42694655;-3.70440439;"CALLE";"DOS DE MAYO";"1";"28004";"Plaza Dos de Mayo";"11006199";;"FUE_01_0020";"FUE22";"ZV";"PERSONAS_Y_MASCOTAS";"MIXTA ESTELA"
"529400";"Fuentes de beber";"012";"EMBAJADORES";"01";"CENTRO";"OPERATIVO";"439735.54";"4473379.12";"ETRS89";40.40884834;-3.71025718;"CALLE";"ARGANZUELA";"1";"28005";;"20004170";;"FUE_01_0031";"FUE22";"VP";"PERSONAS";"PATRIMONIO_HISTORICO"
"529402";"Fuentes de beber";"065";"VALDEACEDERAS";"06";"TETUAN";"OPERATIVO";"439803.857";"4479789.76";"ETRS89";40.46660306;-3.71005939;"CALLE";"VILLAAMIL";"90";"28039";"Parque Huerta del Obispo";"31050938";;"FUE_06_0003";"FUE22";"ZV";"PERSONAS";"MU-37A"
"529406";"Fuentes de beber";"064";"ALMENARA";"06";"TETUAN";"OPERATIVO";"441230.95";"4480238.83";"ETRS89";40.47075065;-3.69326852;"CALLE";"GENERAL PINTOS";"22 B";"28029";"CV CALLE PADRE RUBIO";"31066898";;"FUE_06_0068";"FUE22";"VP";"PERSONAS";"OTRO"
"529408";"Fuentes de beber";"011";"PALACIO";"01";"CENTRO";"OPERATIVO";"438867.16";"4474075.74";"ETRS89";40.41506048;-3.72055779;"PASEO";"VIRGEN DEL PUERTO";"3 B";"28005";"Parque de Atenas";"31044315";;"FUE_01_0021";"FUE22";"ZV";"PERSONAS";"MU-37A"
"529409";"Fuentes de beber";"012";"EMBAJADORES";"01";"CENTRO";"OPERATIVO";"440159.847";"4473092.675";"ETRS89";40.40629851;-3.70522986;"CALLE";"CASINO";"3";"28005";"Parque Casino de la Reina";"11002270";"2023-10-05 00:00:00.0";"FUE_01_0030";"FUE22";"ZV";"PERSONAS";"OTRO"
"529410";"Fuentes de beber";"065";"VALDEACEDERAS";"06";"TETUAN";"OPERATIVO";"439873.2";"4480226.63";"ETRS89";40.47054357;-3.70928289;"CALLE";"SINESIO DELGADO";"23";"28029";"Parque Agustin Rodriguez Sahagun";"31045419";;"FUE_06_0032";"FUE22";"ZV";"PERSONAS";"MU-37A"
"529411";"Fuentes de beber";"065";"VALDEACEDERAS";"06";"TETUAN";"OPERATIVO";"440730.491";"4479706.39";"ETRS89";40.46591866;-3.69912202;"CALLE";"SIERRA BULLONES";"5";"28029";;"11034125";;"FUE_06_0063";"FUE22";"VP";"PERSONAS";"PIEDRA VP"
"529412";"Fuentes de beber";"015";"UNIVERSIDAD";"01";"CENTRO";"OPERATIVO";"439601.252";"4475244.82";"ETRS89";40.42564568;-3.71201690;"PLAZA";"CRISTINO MARTOS";"2";"28015";"Plaza Cristino Martos";"11006548";;"FUE_01_0006";"FUE22";"ZV";"PERSONAS";"BARCINO"
"529418";"Fuentes de beber";"011";"PALACIO";"01";"CENTRO";"OPERATIVO";"439838.45";"4474407.33";"ETRS89";40.41811837;-3.70914164;"PLAZA";"ISABEL II";"8";"28013";"Plaza Isabel II";"20003836";;"FUE_01_0037";"FUE22";"VP";"PERSONAS";"FUENTE_ACCESIBLE"
"529419";"Fuentes de beber";"066";"BERRUGUETE";"06";"TETUAN";"OPERATIVO";"439991.92";"4478894.03";"ETRS89";40.45854758;-3.70775650;"CALLE";"ALONSO NUÑEZ";"7";"28039";"cv Calle de las Margaritas";"11038153";;"FUE_06_0061";"FUE22";"VP";"PERSONAS";"PIEDRA VP"
"529421";"Fuentes de beber";"014";"JUSTICIA";"01";"CENTRO";"OPERATIVO";"441281.79";"4475192.9";"ETRS89";40.42529826;-3.69220230;"CALLE";"ORELLANA";"27";"28004";"Plaza Villa de Paris";"20103453";;"FUE_01_0004";"FUE22";"ZV";"PERSONAS";"MU-37G"
"529422";"Fuentes de beber";"066";"BERRUGUETE";"06";"TETUAN";"OPERATIVO";"440220.017";"4478995.663";"ETRS89";40.45947957;-3.70507601;"CALLE";"BERRUGUETE";"63";"28039";"c/v Calle Serrallo";"11037689";;"FUE_06_0053";"FUE22";"VP";"PERSONAS";"PIEDRA VP"
"529426";"Fuentes de beber";"011";"PALACIO";"01";"CENTRO";"OPERATIVO";"438901.76";"4474042.18";"ETRS89";40.41476070;-3.72014678;"PASEO";"VIRGEN DEL PUERTO";"4";"28005";"PARQUE DE ATENAS";"31011490";;"FUE_01_0028";"FUE22";"ZV";"PERSONAS";"OTRO"
"529428";"Fuentes de beber";"064";"ALMENARA";"06";"TETUAN";"OPERATIVO";"441239.28";"4480555.74";"ETRS89";40.47360609;-3.69319962;"CALLE";"VIA LIMITE";"65";"28029";"Parque de la Ventilla, junto acceso";"11032312";;"FUE_06_0012";"FUE22";"ZV";"PERSONAS";"MU-37A"
"529429";"Fuentes de beber";"065";"VALDEACEDERAS";"06";"TETUAN";"OPERATIVO";"439773.717";"4480262.58";"ETRS89";40.47086022;-3.71045977;"CALLE";"SINESIO DELGADO";"23";"28029";"Parque Agustin Rodriguez Sahagun";"31045419";;"FUE_06_0031";"FUE22";"ZV";"PERSONAS";"MU-37A"
"529431";"Fuentes de beber";"066";"BERRUGUETE";"06";"TETUAN";"OPERATIVO";"440371.251";"4478939.397";"ETRS89";40.45898357;-3.70328712;"CALLE";"MARTINEZ";"15";"28039";"C/ Martínez 15";"20012948";;"FUE_06_0016";"FUE22";"ZV";"PERSONAS";"MU-37A"
"529432";"Fuentes de beber";"014";"JUSTICIA";"01";"CENTRO";"OPERATIVO";"441077.26";"4475077.76";"ETRS89";40.42424657;-3.69460257;"PLAZA";"SALESAS";"1 B";"28004";"Plaza de las Salesas";"31041455";"2017-08-01 00:00:00.0";"FUE_01_0003";"FUE22";"ZV";"PERSONAS";"BARCINO"
"529433";"Fuentes de beber";"061";"BELLAS VISTAS";"06";"TETUAN";"OPERATIVO";"439815.541";"4478313.25";"ETRS89";40.45330293;-3.70978157;"CALLE";"MARIA PEDRAZA";"18";"28039";"CV CALLE ALEJANDRO RODRIGUÉZ";"20010668";;"FUE_06_0060";"FUE22";"VP";"PERSONAS";"PIEDRA VP"
"529436";"Fuentes de beber";"011";"PALACIO";"01";"CENTRO";"OPERATIVO";"439005.2";"4474042.99";"ETRS89";40.41477558;-3.71892773;"CALLE";"SEGOVIA";"30";"28005";"Parque de Atenas";"31047537";;"FUE_01_0027";"FUE22";"ZV";"PERSONAS";"MU-37C"
"529437";"Fuentes de beber";"013";"CORTES";"01";"CENTRO";"OPERATIVO";"441186.39";"4473797.87";"ETRS89";40.41272441;-3.69319784;"PASEO";"PRADO";"22";"28014";"Paseo del Prado";"11003752";;"FUE_01_0017";"FUE22";"ZV";"PERSONAS";"MU-37A"
"529439";"Fuentes de beber";"066";"BERRUGUETE";"06";"TETUAN";"OPERATIVO";"440539.16";"4478823.59";"ETRS89";40.45795236;-3.70129602;"CALLE";"BRAVO MURILLO";"239";"28020";"Plaza Canal de Isabel II";"11037887";;"FUE_06_0058";"FUE22";"VP";"PERSONAS";"FUENTE_ACCESIBLE"
"529440";"Fuentes de beber";"065";"VALDEACEDERAS";"06";"TETUAN";"OPERATIVO";"440772.445";"4479786.23";"ETRS89";40.46664088;-3.69863463;"CALLE";"SIERRA BULLONES";"25";"28029";"C/V PLÁTANO";"11034122";;"FUE_06_0050";"FUE22";"ZV";"PERSONAS";"BRAVO MURILLO"
"529444";"Fuentes de beber";"065";"VALDEACEDERAS";"06";"TETUAN";"OPERATIVO";"440365.086";"4479890.66";"ETRS89";40.46755248;-3.70344922;"CALLE";"ANTONIO LANZUELA";"41";"28029";"Plaza de Ladera";"20001350";;"FUE_06_0038";"FUE22";"ZV";"PERSONAS";"MU-37C"
"529445";"Fuentes de beber";"065";"VALDEACEDERAS";"06";"TETUAN";"OPERATIVO";"440531.79";"4479731.39";"ETRS89";40.46612967;-3.70146800;"CALLE";"CAPITAN BLANCO ARGIBAY";"63";"28029";"CV CALLE GARCI-NUÑO";"20012066";;"FUE_06_0070";"FUE22";"VP";"PERSONAS";"PIEDRA VP"
"529451";"Fuentes de beber";"015";"UNIVERSIDAD";"01";"CENTRO";"OPERATIVO";"440465.539";"4475071.01";"ETRS89";40.42414221;-3.70181262;"PLAZA";"SAN ILDEFONSO";"7";"28004";"Plaza San Ildefonso";"20005958";;"FUE_01_0007";"FUE22";"ZV";"PERSONAS";"OTRO"
"529452";"Fuentes de beber";"011";"PALACIO";"01";"CENTRO";"OPERATIVO";"439304.75";"4473492.44";"ETRS89";40.40983788;-3.71534476;"CALLE";"ROSARIO";"23";"28005";"Parque de la Cornisa";"11001197";;"FUE_01_0012";"FUE22";"ZV";"PERSONAS";"BARCINO"
"529456";"Fuentes de beber";"065";"VALDEACEDERAS";"06";"TETUAN";"OPERATIVO";"439832.134";"4480159.423";"ETRS89";40.46993517;-3.70976092;"CALLE";"CAPITAN BLANCO ARGIBAY";"210";"28029";"Parque Agustín Rodríguez Sahagún";"31044365";;"FUE_06_0051";"FUE22";"ZV";"PERSONAS";"MU-37A"
"529459";"Fuentes de beber";"062";"CUATRO CAMINOS";"06";"TETUAN";"OPERATIVO";"440801.68";"4478257.01";"ETRS89";40.45286711;-3.69814718;"AVENIDA";"GENERAL PERON";"9 B";"28020";"JARDINES PERÓN";"31047944";"2023-07-25 00:00:00.0";"FUE_06_0057";"FUE22";"ZV";"PERSONAS";"METROPOLIS"
"529460";"Fuentes de beber";"011";"PALACIO";"01";"CENTRO";"OPERATIVO";"439346.71";"4473805.94";"ETRS89";40.41266509;-3.71488015;"CALLE";"MORERIA";"14";"28005";"Jardines Plaza Gabriel Miro";"31038860";;"FUE_01_0024";"FUE22";"ZV";"PERSONAS";"OTRO"
"529463";"Fuentes de beber";"066";"BERRUGUETE";"06";"TETUAN";"OPERATIVO";"440285.141";"4479001.97";"ETRS89";40.45954107;-3.70430855;"CALLE";"JUAN DEL RISCO";"50";"28039";;"11037856";;"FUE_06_0072";"FUE22";"VP";"PERSONAS";"MU-37C"
"529464";"Fuentes de beber";"064";"ALMENARA";"06";"TETUAN";"OPERATIVO";"441032.339";"4479674.56";"ETRS89";40.46565340;-3.69555882;"CALLE";"PINOS ALTA";"11";"28029";"C/V MANUEL MARCHAMALO";"11033688";;"FUE_06_0049";"FUE22";"ZV";"PERSONAS";"BRAVO MURILLO"
"529465";"Fuentes de beber";"065";"VALDEACEDERAS";"06";"TETUAN";"OPERATIVO";"440359.128";"4480053.7";"ETRS89";40.46902078;-3.70353482;"CALLE";"CANTUESO";"93 A";"28029";"CV CALLE MANUELA MÍNGUEZ";"31067165";;"FUE_06_0071";"FUE22";"VP";"PERSONAS";"PIEDRA VP"
"529467";"Fuentes de beber";"062";"CUATRO CAMINOS";"06";"TETUAN";"OPERATIVO";"440418.622";"4478450.6";"ETRS89";40.45458368;-3.70268257;"CALLE";"BRAVO MURILLO";"188";"28020";"CV CALLE DE LAS MERCEDES";"11030230";;"FUE_06_0074";"FUE22";"VP";"PERSONAS";"BRAVO MURILLO"
"529470";"Fuentes de beber";"065";"VALDEACEDERAS";"06";"TETUAN";"OPERATIVO";"440916.465";"4479402.1";"ETRS89";40.46319073;-3.69690016;"CALLE";"BRAVO MURILLO";"315";"28020";"C/Bravo Murillo c/v C/ Azucenas";"11033815";;"FUE_06_0065";"FUE22";"VP";"PERSONAS";"BRAVO MURILLO"
"529474";"Fuentes de beber";"065";"VALDEACEDERAS";"06";"TETUAN";"OPERATIVO";"441032.101";"4479540.12";"ETRS89";40.46444229;-3.69554914;"CALLE";"BRAVO MURILLO";"335";"28020";"CV CALLE CAPITÁN BLANCO ARGIBAY";"11033823";;"FUE_06_0076";"FUE22";"VP";"PERSONAS";"BRAVO MURILLO"
"529475";"Fuentes de beber";"063";"CASTILLEJOS";"06";"TETUAN";"OPERATIVO";"440623.174";"4478898.02";"ETRS89";40.45862887;-3.70031217;"CALLE";"BRAVO MURILLO";"234";"28020";;"11030391";;"FUE_06_0077";"FUE22";"VP";"PERSONAS";"BRAVO MURILLO"
"529478";"Fuentes de beber";"062";"CUATRO CAMINOS";"06";"TETUAN";"OPERATIVO";"440449.372";"4477750.65";"ETRS89";40.44828044;-3.70225430;"CALLE";"HERNANI";"18";"28020";"CV CALLE ISTURIZ";"20011070";;"FUE_06_0080";"FUE22";"VP";"PERSONAS";"MU-37A"
"529481";"Fuentes de beber";"074";"ALMAGRO";"07";"CHAMBERI";"OPERATIVO";"441581.28";"4476181.62";"ETRS89";40.43422621;-3.68876285;"PASEO";"CASTELLANA";"37";"28046";"BULEVAR PASEO DE LA CASTELLANA";"11041193";;"FUE_07_0009";"FUE22";"ZV";"PERSONAS";"MU-37D"
"529482";"Fuentes de beber";"074";"ALMAGRO";"07";"CHAMBERI";"OPERATIVO";"441466.903";"4475432.03";"ETRS89";40.42746551;-3.69004225;"PASEO";"CASTELLANA";"11";"28046";"BULEVAR DEL PASEO DE LA CASTELLANA";"20014074";;"FUE_07_0006";"FUE22";"ZV";"PERSONAS";"MU-37D"
"529483";"Fuentes de beber";"071";"GAZTAMBIDE";"07";"CHAMBERI";"NO_OPERATIVO";"439380.576";"4476579.260";"ETRS89";40.43765083;-3.71474544;"CALLE";"JOAQUIN MARIA LOPEZ";"48 A";"28015";"PRÓXIMO A ZONA INANTIL";"31069211";;"FUE_07_0003";"FUE22";"ZV";"PERSONAS";"MU-37A"
"529486";"Fuentes de beber";"072";"ARAPILES";"07";"CHAMBERI";"OPERATIVO";"440003.89";"4475758.22";"ETRS89";40.43029975;-3.70731915;"PLAZA";"CONDE DEL VALLE DE SUCHIL";"2";"28015";"Junto a estación de BiciMad";"11039772";"2015-09-29 00:00:00.0";"FUE_07_0018";"FUE22";"VP";"PERSONAS";"MU-37A"
"529488";"Fuentes de beber";"033";"ESTRELLA";"03";"RETIRO";"OPERATIVO";"443645.670";"4474002.260";"ETRS89";40.41473581;-3.66423190;"CALLE";"PEZ VOLADOR";"32";"28007";"EN PARQUE DE ROMA, FRENTE COLEGIO MONSERRAT, PROXIMO A AREA INFANTIL";"11011971";"2022-04-08 00:00:00.0";"FUE_03_0006";"FUE22";"ZV";"PERSONAS";"MU-37A"
"529489";"Fuentes de beber";"074";"ALMAGRO";"07";"CHAMBERI";"OPERATIVO";"440858.72";"4475995.89";"ETRS89";40.43250200;-3.69726403;"PLAZA";"CHAMBERI";"10";"28010";"CV PASEO EDUARDO DATO";"11041068";"2015-09-16 00:00:00.0";"FUE_07_0019";"FUE22";"VP";"PERSONAS";"MU-37A"
"529493";"Fuentes de beber";"091";"CASA DE CAMPO";"09";"MONCLOA-ARAVACA";"OPERATIVO";"438474.76";"4476018.3";"ETRS89";40.43253096;-3.72537053;"PASEO";"PINTOR ROSALES";"82";"28008";"CV PASEO MORET A LA ENTRADA AL PARQUE DEL OESTE";"11052982";;"FUE_09_0055";"FUE22";"VP";"PERSONAS";"OTRO"
"529494";"Fuentes de beber";"026";"PALOS DE LA FRONTERA";"02";"ARGANZUELA";"OPERATIVO";"441149.100";"4472614.310";"ETRS89";40.40205967;-3.69352788;"PLAZA";"LUCA DE TENA";"4";"28045";"JUNTO AREA INFANTIL";"11010054";;"FUE_02_0009";"FUE22";"ZV";"PERSONAS";"MU-37A"
"529495";"Fuentes de beber";"022";"ACACIAS";"02";"ARGANZUELA";"OPERATIVO";"440374.210";"4472508.330";"ETRS89";40.40104982;-3.70264899;"PLAZA";"PEÑUELAS";"3";"28005";"JUNTO FAROLA 16, FRENTE AREA INFANTIL";"11008695";;"FUE_02_0015";"FUE22";"ZV";"PERSONAS";"MU-37A"
"529496";"Fuentes de beber";"021";"IMPERIAL";"02";"ARGANZUELA";"OPERATIVO";"439531.82";"4472910.32";"ETRS89";40.40461039;-3.71261344;"CALLE";"TOLEDO";"134 A";"28005";"EN MEDIANA";"11008284";;"FUE_02_0025";"FUE22";"ZV";"PERSONAS";"OTRO"
"529499";"Fuentes de beber";"075";"RIOS ROSAS";"07";"CHAMBERI";"OPERATIVO";"441123.501";"4476945.08";"ETRS89";40.44107153;-3.69423048;"PLAZA";"SAN JUAN DE LA CRUZ";"3 C";"28003";;"31044199";;"FUE_07_0017";"FUE22";"VP";"PERSONAS";"PIEDRA VP"
"529502";"Fuentes de beber";"025";"DELICIAS";"02";"ARGANZUELA";"OPERATIVO";"441880.820";"4472295.840";"ETRS89";40.39924212;-3.68487644;"PLAZA";"AMANECER EN MENDEZ ALVARO";"7";"28045";"JUNTO ÁREA INFANTIL";"20064330";;"FUE_02_0001";"FUE22";"ZV";"PERSONAS";"MU-37A"
"529505";"Fuentes de beber";"022";"ACACIAS";"02";"ARGANZUELA";"OPERATIVO";"439947.870";"4472323.980";"ETRS89";40.39935847;-3.70765536;"CALLE";"ARGANDA";"10 B";"28005";"EN PARQUE, ENTRE PISTA DE FUTBOL Y AREA INFANTIL";"31045265";;"FUE_02_0017";"FUE22";"ZV";"PERSONAS";"MU-S37A"
"529506";"Fuentes de beber";"023";"CHOPERA";"02";"ARGANZUELA";"OPERATIVO";"440862.490";"4471751.950";"ETRS89";40.39427078;-3.69682509;"CALLE";"BENITO VALDERAS";"2";"28045";"EN PLAZA DE RUTILIO GACI, JUNTO AREA INFANTIL";"31016360";"2022-01-28 00:00:00.0";"FUE_02_0014";"FUE22";"ZV";"PERSONAS";"MU-37A"
"529508";"Fuentes de beber";"025";"DELICIAS";"02";"ARGANZUELA";"OPERATIVO";"441666.900";"4472270.390";"ETRS89";40.39899790;-3.68739477;"CALLE";"JUAN DE MARIANA";"8 D";"28045";"EN PARQUE, PRÓXIMO A ÁREA INFANTIL";"20134612";;"FUE_02_0002";"FUE22";"ZV";"PERSONAS";"MU-37A"
"529512";"Fuentes de beber";"024";"LEGAZPI";"02";"ARGANZUELA";"OPERATIVO";"441885.250";"4470834.180";"ETRS89";40.38607500;-3.68469086;"CALLE";"PUERTO DE LA CRUZ VERDE";"23";"28045";"PARQUE ENRIQUE TIERNO GALVAN, JUNTO FAROLA 387 Y CALISTENIA";"20118243";;"FUE_02_0034";"FUE22";"ZV";"PERSONAS";"MU-37A"
"529513";"Fuentes de beber";"033";"ESTRELLA";"03";"RETIRO";"OPERATIVO";"443588.22";"4474449";"ETRS89";40.41875640;-3.66494862;"CALLE";"JUAN ESPLANDIU";"11";"28007";"C/JUAN ESPLANDIU Nº 11, EN EL ROCODROMO";"31002941";;"FUE_03_0007";"FUE22";"ZV";"PERSONAS";"MU-37A"
"529514";"Fuentes de beber";"024";"LEGAZPI";"02";"ARGANZUELA";"OPERATIVO";"441892.160";"4471013.360";"ETRS89";40.38768963;-3.68462580;"CALLE";"PUERTO DE BEJAR";"28";"28045";"PARQUE ENRIQUE TIERNO GALVAN, EN MIRADOR SUR";"20000346";;"FUE_02_0038";"FUE22";"ZV";"PERSONAS";"MU-37A"
"529515";"Fuentes de beber";"022";"ACACIAS";"02";"ARGANZUELA";"OPERATIVO";"440217.460";"4472591.540";"ETRS89";40.40178818;-3.70450386;"CALLE";"MORATINES";"27";"28005";"FRENTE Nº 24, JUNTO AREA INFANTIL";"20107689";;"FUE_02_0046";"FUE22";"ZV";"PERSONAS";"MU-37A"
"529516";"Fuentes de beber";"033";"ESTRELLA";"03";"RETIRO";"OPERATIVO";"443888.97";"4474260.48";"ETRS89";40.41707844;-3.66138715;"CALLE";"JUAN ESPLANDIU";"8";"28007";"C/JUAN ESPLANDIU Nº 6.PROXIMA A FUENTE ORNAMENTAL CIRCULAR";"11013637";;"FUE_03_0001";"FUE22";"ZV";"PERSONAS";"MU-37A"
"529518";"Fuentes de beber";"022";"ACACIAS";"02";"ARGANZUELA";"OPERATIVO";"439594.64";"4473082.26";"ETRS89";40.40616387;-3.71188948;"CALLE";"TOLEDO";"127";"28005";"EN MEDIANA";"20007296";;"FUE_02_0027";"FUE22";"ZV";"PERSONAS";"OTRO"
"529521";"Fuentes de beber";"074";"ALMAGRO";"07";"CHAMBERI";"OPERATIVO";"441497.164";"4475576.98";"ETRS89";40.42877341;-3.68969887;"PASEO";"CASTELLANA";"19";"28046";"BULEVAR PASEO DE LA CASTELLANA";"11040932";;"FUE_07_0007";"FUE22";"ZV";"PERSONAS";"MU-37D"
"529525";"Fuentes de beber";"024";"LEGAZPI";"02";"ARGANZUELA";"OPERATIVO";"442001.480";"4471569.770";"ETRS89";40.39270970;-3.68338854;"AVENIDA";"PLANETARIO";"14";"28045";"PARQUE ENRIQUE TIERNO GALVAN, PROXIMO A PALOMA DE LA PAZ";"20064504";;"FUE_02_0040";"FUE22";"ZV";"PERSONAS";"MU-37A"
"529526";"Fuentes de beber";"024";"LEGAZPI";"02";"ARGANZUELA";"OPERATIVO";"441803.07";"4471517.31";"ETRS89";40.39222327;-3.68572143;"AVENIDA";"PLANETARIO";"16";"28045";"PARQUE ENRIQUE TIERNO GALVAN";"20064507";;"FUE_02_0039";"FUE22";"ZV";"PERSONAS";"MU-37A"
"529528";"Fuentes de beber";"076";"VALLEHERMOSO";"07";"CHAMBERI";"NO_OPERATIVO";"440040.36";"4476885.38";"ETRS89";40.44045633;-3.70699557;"PLAZA";"TENIENTE DE ALCALDE PEREZ PILLADO";"6";"28003";"Teniente Alcalde Perez Pillado";"31044168";;"FUE_07_0004";"FUE22";"ZV";"PERSONAS";"MU-37B"
"1118899";"Fuentes de beber";"191";"CASCO HISTORICO DE VICALVARO";"19";"VICALVARO";"OPERATIVO";"448223.60";"4473350.68";"ETRS89";40.40916335;-3.61022319;"PLAZA";"VICALVARADA";"4";"28032";"CV C/ CALAHORRA 22";"31053577";;"FUE_19_0140";"FUE22";"ZV";"PERSONAS";"MU-37E"
"1118921";"Fuentes de beber";"043";"FUENTE DEL BERRO";"04";"SALAMANCA";"OPERATIVO";"443881.34";"4475590.91";"ETRS89";40.42906316;-3.66159450;"PLAZA";"AMERICA ESPAÑOLA";"5";"28028";"Entrada PARQUE SANCHO DÁVILA";"31047835";"2017-04-27 00:00:00.0";"FUE_04_0039";"FUE22";"ZV";"MASCOTAS";"BEBEDERO TERRIER"
"3530213";"Fuentes de beber";"166";"VALDEFUENTES";"16";"HORTALEZA";"OPERATIVO";"448696.169";"4481911.509";"ETRS89";40.48631369;-3.60534547;"CALLE";"FERNANDO HIGUERAS";"55";"28055";"C/V C/ JULIO CANO LASSO";"31039443";"2017-05-16 00:00:00.0";"FUE_16_0172";"FUE22";"ZV";"PERSONAS";"MU-37A"
"3530535";"Fuentes de beber";"159";"COSTILLARES";"15";"CIUDAD LINEAL";"OPERATIVO";"443892.05";"4481542.01";"ETRS89";40.48267430;-3.66199421;"CALLE";"JAZMIN";"49";"28033";"JUNTO ÁREA INFANTIL";"20184185";"2017-06-13 00:00:00.0";"FUE_15_0120";"FUE22";"ZV";"PERSONAS";"MU-37B"
"3530545";"Fuentes de beber";"202";"HELLIN";"20";"SAN BLAS-CANILLEJAS";"OPERATIVO";"447225.57";"4475667.98";"ETRS89";40.42997634;-3.62217735;"AVENIDA";"ARCENTALES";"4";"28037";"PARQUE PARAÍSO. JUNTO AUDITORIO";"31041888";"2017-05-31 00:00:00.0";"FUE_20_0110";"FUE22";"ZV";"PERSONAS";"MU-37A"
"3530650";"Fuentes de beber";"083";"PEÑA GRANDE";"08";"FUENCARRAL-EL PARDO";"OPERATIVO";"438406.713";"4480606.82";"ETRS89";40.47386101;-3.72661785;"CALLE";"JOAQUIN LORENZO";"36";"28035";"EN EL PARQUE DE ENFRENTE";"11044479";;"FUE_08_0150";"FUE22";"ZV";"PERSONAS";"MU-37A"
"3530868";"Fuentes de beber";"016";"SOL";"01";"CENTRO";"OPERATIVO";"439879.02";"4474144.04";"ETRS89";40.41574947;-3.70863858;"CALLE";"CIUDAD RODRIGO";"6";"28012";"cv Travesía de Bringas";"11007722";"2017-06-22 00:00:00.0";"FUE_01_0044";"FUE22";"VP";"PERSONAS";"MU-37E"
"3531364";"Fuentes de beber";"084";"EL PILAR";"08";"FUENCARRAL-EL PARDO";"OPERATIVO";"440030.6";"4480481.601";"ETRS89";40.47285183;-3.70745037;"CALLE";"RIBADAVIA";"45";"28029";"CALLE RIBADAVIA 27";"31041111";"2017-07-21 00:00:00.0";"FUE_08_0062";"FUE22";"ZV";"PERSONAS";"MU-37A"
"3531374";"Fuentes de beber";"086";"VALVERDE";"08";"FUENCARRAL - EL PARDO";"OPERATIVO";"442326.73";"4484307.87";"ETRS89";40.50748300;-3.68071331;"AVENIDA";"SANTO DOMINGO DE LA CALZADA";"1";"28050";"C/V CALLE DEL CASTILLO DE CANDANCHÚ";"31040770";;"FUE_08_0151";"FUE22";"ZV";"PERSONAS";"EGEA"
"3565789";"Fuentes de beber";"032";"ADELFAS";"03";"RETIRO";"OPERATIVO";"442951.19";"4471915.44";"ETRS89";40.39588928;-3.67222995;"CALLE";"CERRO NEGRO";"12";"28007";;"31041013";;"FUE_03_0046";"FUE22";"ZV";"PERSONAS";"MU-37A"
"3565880";"Fuentes de beber";"092";"ARGUELLES";"09";"MONCLOA-ARAVACA";"OPERATIVO";"439045.75";"4475290.37";"ETRS89";40.42601550;-3.71856937;"PASEO";"PINTOR ROSALES";"16";"28008";"cv Calle Rey Francisco";"11052506";"2017-08-11 00:00:00.0";"FUE_09_0056";"FUE22";"VP";"PERSONAS";"MU-37A"
"3567461";"Fuentes de beber";"014";"JUSTICIA";"01";"CENTRO";"OPERATIVO";"440629.77";"4475283.34";"ETRS89";40.42606672;-3.69989657;"CALLE";"BENEFICENCIA";"8";"28004";"JARDINES DEL ARQUITECTO RIBERA JUNTO A PARQUE INFANTIL";"11005217";"2017-10-09 00:00:00.0";"FUE_01_0045";"FUE22";"ZV";"PERSONAS";"FUENTE_ACCESIBLE"
"3568639";"Fuentes de beber";"025";"DELICIAS";"02";"ARGANZUELA";"OPERATIVO";"441238.39";"4471659.4";"ETRS89";40.39346365;-3.69238758;"CALLE";"HIERRO";"2";"28045";"CON VUELTA CALLE GRANITO";"31064800";"2017-10-05 00:00:00.0";"FUE_02_0053";"FUE22";"VP";"PERSONAS";"MU-37A"
"3568641";"Fuentes de beber";"083";"PEÑA GRANDE";"08";"FUENCARRAL-EL PARDO";"OPERATIVO";"439182.94";"4481256.07";"ETRS89";40.47976688;-3.71752362;"CALLE";"FERMIN CABALLERO";"84";"28035";"CON VUELTA CALLE SANTIAGO DE COMPOSTELA";"31010701";"2017-10-02 00:00:00.0";"FUE_08_0153";"FUE22";"ZV";"PERSONAS";"MU-37A"
"3568801";"Fuentes de beber";"156";"SAN JUAN BAUTISTA";"15";"CIUDAD LINEAL";"OPERATIVO";"444277.24";"4477934.22";"ETRS89";40.45019953;-3.65713296;"PLAZA";"VALVANERA";"5";"28043";"JUNTO ACERA C/ ALBELDA";"31015964";"2021-03-12 00:00:00.0";"FUE_15_0122";"FUE22";"ZV";"PERSONAS";"PIEDRA VP"
"3569158";"Fuentes de beber";"065";"VALDEACEDERAS";"06";"TETUAN";"OPERATIVO";"440375.5";"4479413.31";"ETRS89";40.46325307;-3.70328153;"CALLE";"MARQUES DE VIANA";"58";"28039";"FRENTE AL COLEGIO";"11035958";"2017-10-24 00:00:00.0";"FUE_06_0082";"FUE22";"VP";"PERSONAS";"MU-37A"
"3569414";"Fuentes de beber";"031";"PACIFICO";"03";"RETIRO";"NO_OPERATIVO";"443082.600";"4473087.480";"ETRS89";40.40645666;-3.67078638;"PLAZA";"CONDE DE CASAL";"10";"28007";;"31047387";"2020-06-30 00:00:00.0";"FUE_03_0052";"FUE22";"VP";"PERSONAS";"FUENTE_ACCESIBLE"
"3569415";"Fuentes de beber";"084";"EL PILAR";"08";"FUENCARRAL-EL PARDO";"OPERATIVO";"439950.08";"4481131.74";"ETRS89";40.47870270;-3.70846174;"AVENIDA";"MONFORTE DE LEMOS";"36";"28029";;"31049013";"2017-10-31 00:00:00.0";"FUE_08_0154";"FUE22";"VP";"PERSONAS";"MU-37B"
"3569446";"Fuentes de beber";"207";"CANILLEJAS";"20";"SAN BLAS-CANILLEJAS";"OPERATIVO";"448322.86";"4477750.53";"ETRS89";40.44880610;-3.60941108;"CALLE";"ALCALA";"629";"28022";"INTERCAMBIADOR CANILLEJAS";"20052950";"2017-10-31 00:00:00.0";"FUE_20_0111";"FUE22";"VP";"PERSONAS";"MU-37A"
"3576061";"Fuentes de beber";"205";"ROSAS";"20";"SAN BLAS-CANILLEJAS";"OPERATIVO";"448497.27";"4475361.42";"ETRS89";40.42729436;-3.60716078;"CALLE";"CARLOS II";"2";"28022";"JUNTO ÁREA INFANTIL";"20084930";"2017-11-08 00:00:00.0";"FUE_20_0112";"FUE22";"VP";"PERSONAS";"MU-37A"
"3576073";"Fuentes de beber";"183";"ENSANCHE DE VALLECAS";"18";"VILLA DE VALLECAS";"OPERATIVO";"449778.42";"4468821.52";"ETRS89";40.36845669;-3.59154233;"CALLE";"ALTO DEL RETIRO";"13";"28051";"C/V ANTONIO GADES";"31045486";"2017-10-17 00:00:00.0";"FUE_18_0053";"FUE22";"VP";"PERSONAS";"MU-S37A"
"3576085";"Fuentes de beber";"183";"ENSANCHE DE VALLECAS";"18";"VILLA DE VALLECAS";"OPERATIVO";"449610.60";"4468080.21";"ETRS89";40.36176829;-3.59346035;"CALLE";"FERNANDO CHUECA GOITIA";"31";"28051";"C/V Mª TERESA LEON";"31056617";"2017-11-16 00:00:00.0";"FUE_18_0054";"FUE22";"VP";"PERSONAS";"MU-S37A"
"3576087";"Fuentes de beber";"134";"PALOMERAS SURESTE";"13";"PUENTE DE VALLECAS";"OPERATIVO";"445346.51";"4470606.54";"ETRS89";40.38425853;-3.64389431;"CALLE";"EXTREMEÑOS";"5";"28018";"Parque del Campo de la Paloma";"20139499";;"FUE_13_0155";"FUE22";"ZV";"PERSONAS";"MU-37A"
"3581346";"Fuentes de beber";"174";"LOS ROSALES";"17";"VILLAVERDE";"OPERATIVO";"441219.41";"4466926.94";"ETRS89";40.35082965;-3.69217486;"CALLE";"SANTA PETRONILA";"7";"28021";"CV CALLE JOSE DEL PINO";"20182856";"2017-11-21 00:00:00.0";"FUE_17_0121";"FUE22";"ZV";"PERSONAS";"MU-S37A"
"3655196";"Fuentes de beber";"086";"VALVERDE";"08";"FUENCARRAL-EL PARDO";"OPERATIVO";"441167.05";"4482813.08";"ETRS89";40.49393596;-3.69426114;"CALLE";"MATARO";"2";"28034";;"11048281";"2017-12-01 00:00:00.0";"FUE_08_0113";"FUE22";"ZV";"PERSONAS";"MU-37A"
"4738570";"Fuentes de beber";"116";"BUENAVISTA";"11";"CARABANCHEL";"OPERATIVO";"435049.06";"4468488.26";"ETRS89";40.36443708;-3.76498734;"CALLE";"TORTA";"3";"28054";"CON C/PATRIMONIO DE LA HUMANIDAD";"31006215";"2017-09-15 00:00:00.0";"FUE_11_0129";"FUE22";"VP";"PERSONAS";"MU-37A"
"4784163";"Fuentes de beber";"192";"VALDEBERNARDO";"19";"VICALVARO";"OPERATIVO";"447553.3";"4472469.97";"ETRS89";40.40118738;-3.61805017;"CALLE";"CORDEL DE PAVONES";"12 B";"28032";"Parque Valdebernardo Este";"20124177";"2018-04-02 00:00:00.0";"FUE_19_0115";"FUE22";"ZV";"PERSONAS";"MU-37A"
"4784586";"Fuentes de beber";"087";"MIRASIERRA";"08";"FUENCARRAL-EL PARDO";"OPERATIVO";"438429.37";"4482666.43";"ETRS89";40.49241632;-3.72655061;"CALLE";"MENCHU AJAMIL";"2";"28049";"CV CALLE MARIA TERESA DE CALCUTA";"31049743";;"FUE_08_0155";"FUE22";"ZV";"PERSONAS";"EGEA"
"4795658";"Fuentes de beber";"016";"SOL";"01";"CENTRO";"OPERATIVO";"440031.29";"4474322.66";"ETRS89";40.41736955;-3.70686076;"CALLE";"ARENAL";"18";"28013";;"11007831";"2018-06-29 00:00:00.0";"FUE_01_0046";"FUE22";"VP";"PERSONAS";"FUENTE_ACCESIBLE"
"4795801";"Fuentes de beber";"121";"ORCASITAS";"12";"USERA";"OPERATIVO";"439808.91";"4469323.11";"ETRS89";40.37231507;-3.70900922;"AVENIDA";"POBLADOS";"144";"28041";"FRENTE ESCUELA INFANTIL";"31009783";"2018-06-04 00:00:00.0";"FUE_12_0069";"FUE22";"VP";"PERSONAS";"FUENTE_ACCESIBLE"
"4796090";"Fuentes de beber";"117";"ABRANTES";"11";"CARABANCHEL";"OPERATIVO";"438908.31";"4470722.41";"ETRS89";40.38485514;-3.71975101;"CALLE";"VIANA";"1";"28025";"JUNTO ZONA INFANTIL";"11079428";"2018-07-13 00:00:00.0";"FUE_11_0130";"FUE22";"ZV";"PERSONAS";"FUENTE_ACCESIBLE"
"4796261";"Fuentes de beber";"086";"VALVERDE";"08";"FUENCARRAL-EL PARDO";"OPERATIVO";"442762.33";"4484338.64";"ETRS89";40.50779036;-3.67557508;"CALLE";"SAN JUAN DE ORTEGA";"90";"28050";"JUNTO A UNA ZONA VERDE Y UNA ZONA INFANTIL";"31023640";"2018-07-23 00:00:00.0";"FUE_08_0158";"FUE22";"VP";"PERSONAS";"MU-37A"
"4798069";"Fuentes de beber";"164";"PINAR DEL REY";"16";"HORTALEZA";"OPERATIVO";"445032.33";"4479915.90";"ETRS89";40.46810179;-3.64840042;"GLORIETA";"FRANCISCO FERNANDEZ ORDOÑEZ";"4";"28043";"JUNTO Nº 47 AVDA. GRAN VÍA DE HORTALEZA";"20123605";"2018-08-21 00:00:00.0";"FUE_16_0154";"FUE22";"VP";"PERSONAS";"FUENTE_ACCESIBLE"
"4813533";"Fuentes de beber";"163";"CANILLAS";"16";"HORTALEZA";"OPERATIVO";"446725.49";"4479468.28";"ETRS89";40.46417970;-3.62839142;"CALLE";"EL PROVENCIO";"16";"28043";"JUNTO ÁREA INFANTIL";"20063258";;"FUE_16_0168";"FUE22";"ZV";"PERSONAS";"MU-37A"
"4813550";"Fuentes de beber";"035";"LOS JERONIMOS";"03";"RETIRO";"OPERATIVO";"442085.58";"4473289.53";"ETRS89";40.40820807;-3.68255413;"CALLE";"JUAN VALERA";"26";"28014";"C/V C/ANDRES TORREJON";"11013002";"2020-07-15 00:00:00.0";"FUE_03_0057";"FUE22";"VP";"PERSONAS";"MU-37A"
"4813553";"Fuentes de beber";"033";"ESTRELLA";"03";"RETIRO";"OPERATIVO";"443512.78";"4473613.83";"ETRS89";40.41122761;-3.66576365;"CALLE";"ESTRELLA POLAR";"13";"28007";"C/V CALLE PEZ AUSTRAL";"11011956";"2020-07-14 00:00:00.0";"FUE_03_0054";"FUE22";"VP";"PERSONAS";"MU-37A"
"4940126";"Fuentes de beber";"165";"APOSTOL SANTIAGO";"16";"HORTALEZA";"OPERATIVO";"443791.53";"4480397.91";"ETRS89";40.47236093;-3.66307872;"CALLE";"JULIO DANVILA";"28";"28033";"ZONA INFANTIL";"11121437";"2018-10-09 00:00:00.0";"FUE_16_0155";"FUE22";"VP";"PERSONAS";"MU-S37A"
"4961115";"Fuentes de beber";"075";"RIOS ROSAS";"07";"CHAMBERI";"OPERATIVO";"440756.59";"4477524.93";"ETRS89";40.44626901;-3.69861061;"CALLE";"PONZANO";"100";"28003";"cv Raimundo Fdez Villaverde";"31006753";"2018-10-15 00:00:00.0";"FUE_07_0021";"FUE22";"VP";"PERSONAS";"FUENTE_ACCESIBLE"
"4963663";"Fuentes de beber";"146";"VINATEROS";"14";"MORATALAZ";"OPERATIVO";"444799.98";"4472954.92";"ETRS89";40.40537813;-3.65053637;"PLAZA";"ENCUENTRO";"2";"28030";;"31032929";"2018-10-23 00:00:00.0";"FUE_14_0100";"FUE22";"VP";"PERSONAS";"FUENTE_ACCESIBLE"
"4988124";"Fuentes de beber";"083";"PEÑA GRANDE";"08";"FUENCARRAL-EL PARDO";"OPERATIVO";"439366.88";"4481654.65";"ETRS89";40.48337088;-3.71539177;"AVENIDA";"VENTISQUERO DE LA CONDESA";"2";"28035";;"20079569";;"FUE_08_0160";"FUE22";"ZV";"PERSONAS";"MU-37B"
"4989817";"Fuentes de beber";"092";"ARGUELLES";"09";"MONCLOA-ARAVACA";"OPERATIVO";"439374.18";"4475539.53";"ETRS89";40.42828404;-3.71472167;"CALLE";"PRINCESA";"33";"28008";"CV CALLE REY FRANCISCO";"11052549";"2018-12-28 00:00:00.0";"FUE_09_0062";"FUE22";"VP";"PERSONAS";"MU-37A"
"4991388";"Fuentes de beber";"073";"TRAFALGAR";"07";"CHAMBERI";"OPERATIVO";"440472.47";"4475637.17";"ETRS89";40.42924294;-3.70178393;"GLORIETA";"BILBAO";"5";"28004";"CV CALLE LUCHANA";"11039861";"2019-01-17 00:00:00.0";"FUE_07_0022";"FUE22";"VP";"PERSONAS";"MU-37B"
"4995656";"Fuentes de beber";"062";"CUATRO CAMINOS";"06";"TETUAN";"OPERATIVO";"441188.87";"4477844.94";"ETRS89";40.44918249;-3.69354307;"PLAZA";"PABLO RUÍZ PICASSO";"6";"28020";"junto a pistas deportivas";"31065188";;"FUE_06_0083";"FUE22";"ZV";"PERSONAS";"CARMEL"
"4996359";"Fuentes de beber";"094";"VALDEZARZA";"09";"MONCLOA-ARAVACA";"OPERATIVO";"438993.81";"4480057.37";"ETRS89";40.46895470;-3.71963953;"CALLE";"VALDERRODRIGO";"46";"28035";;"11054493";;"FUE_09_0123";"FUE22";"ZV";"PERSONAS";"MU-37A"
"4998043";"Fuentes de beber";"166";"VALDEFUENTES";"16";"HORTALEZA";"OPERATIVO";"448252.52";"4482847.33";"ETRS89";40.49471652;-3.61065632;"AVENIDA";"SECUNDINO ZUAZO";"134";"28055";;"31039692";;"FUE_16_0157";"FUE22";"ZV";"PERSONAS";"MU-37A"
"4998045";"Fuentes de beber";"166";"VALDEFUENTES";"16";"HORTALEZA";"OPERATIVO";"448562.69";"4483546.41";"ETRS89";40.50103348;-3.60705305;"AVENIDA";"FRANCISCO JAVIER SAENZ DE OIZA";"15";"28055";"CALLE DE ANTONIO FLOREZ";"31035676";;"FUE_16_0159";"FUE22";"ZV";"PERSONAS";"MU-37A"
"5007925";"Fuentes de beber";"086";"VALVERDE";"08";"FUENCARRAL-EL PARDO";"OPERATIVO";"442612.023";"4483782.246";"ETRS89";40.50276776;-3.67729861;"AVENIDA";"PUENTE LA REINA";"48";"28050";"PZA. INT. CASTILLO DE JACA JUNTO A LA ZONA INFANTIL";"31010570";"2019-02-28 00:00:00.0";"FUE_08_0161";"FUE22";"ZV";"PERSONAS";"CASTIZA"
"5034853";"Fuentes de beber";"013";"CORTES";"01";"CENTRO";"OPERATIVO";"440345.47";"4474000.18";"ETRS89";40.41448707;-3.70312749;"PLAZA";"JACINTO BENAVENTE";"2";"28012";"c/v Plaza del Ángel";"11003682";"2019-03-14 00:00:00.0";"FUE_01_0050";"FUE22";"ZV";"PERSONAS";"MU-37A"
"5034922";"Fuentes de beber";"181";"CASCO H.VALLECAS";"18";"VILLA DE VALLECAS";"OPERATIVO";"446394.23";"4468517.95";"ETRS89";40.36551118;-3.63137577;"CALLE";"ISLA DE GUAM";"60";"28031";"ZONA VERDE  Y LAMINA DE AGUA";"31042407";"2019-03-14 00:00:00.0";"FUE_18_0058";"FUE22";"ZV";"PERSONAS";"MU-37B"
"5069011";"Fuentes de beber";"027";"ATOCHA";"02";"ARGANZUELA";"OPERATIVO";"442359.46";"4472086.99";"ETRS89";40.39739395;-3.67921762;"CALLE";"JACARANDA";"13";"28045";"C/V ALMEZ";"20140597";"2019-04-04 00:00:00.0";"FUE_02_0057";"FUE22";"ZV";"PERSONAS";"MU-37A"
"5069025";"Fuentes de beber";"021";"IMPERIAL";"02";"ARGANZUELA";"OPERATIVO";"439380.750";"4472628.010";"ETRS89";40.40205623;-3.71436677;"CALLE";"TOLEDO";"178";"28005";"JUNTO AREA INFANTIL";"20084999";"2019-04-05 00:00:00.0";"FUE_02_0059";"FUE22";"ZV";"PERSONAS";"MU-37A"
"5069030";"Fuentes de beber";"022";"ACACIAS";"02";"ARGANZUELA";"OPERATIVO";"440602.84";"4472491.95";"ETRS89";40.40091860;-3.69995340;"PASEO";"JUAN ANTONIO VALLEJO-NAJERA BOTAS";"1";"28005";"C/V GLORIETA SANTA MARÍA DE LA CABEZA 13";"31042018";"2019-04-04 00:00:00.0";"FUE_02_0060";"FUE22";"ZV";"PERSONAS";"MU-37A"
"5074610";"Fuentes de beber";"052";"PROSPERIDAD";"05";"CHAMARTIN";"OPERATIVO";"443342.73";"4477507";"ETRS89";40.44628776;-3.66811472;"CALLE";"CLARA DEL REY";"61";"28002";"C/V C/RAMOS CARRION";"20009496";"2019-04-15 00:00:00.0";"FUE_05_0080";"FUE22";"VP";"PERSONAS";"MU-37A"
"5074625";"Fuentes de beber";"127";"PRADOLONGO";"12";"USERA";"OPERATIVO";"440211.82";"4469319.32";"ETRS89";40.37230993;-3.70426321;"PARQUE";"PRADOLONGO";"13C";"28041";"Junto farolín 304. Próxima a entrada parque C/V Dr. Tolosa Latour";"31018213";"2019-04-26 00:00:00.0";"FUE_12_0070";"FUE22";"ZV";"PERSONAS";"CASTIZA"
"5074629";"Fuentes de beber";"123";"SAN FERMIN";"12";"USERA";"NO_OPERATIVO";"441502.390";"4468578.040";"ETRS89";40.36572363;-3.68899423;"CALLE";"SILVINA";"35";"28041";;"20141724";"2019-04-23 00:00:00.0";"FUE_12_0071";"FUE22";"ZV";"PERSONAS";"CASTIZA"
"5074661";"Fuentes de beber";"122";"ORCASUR";"12";"USERA";"OPERATIVO";"440450.47";"4468610.37";"ETRS89";40.36594040;-3.70138606;"AVENIDA";"ORCASUR";"53";"28041";"JUNTO PISTAS DEPORTIVAS";"20142301";"2019-04-12 00:00:00.0";"FUE_12_0072";"FUE22";"VP";"PERSONAS";"CASTIZA"
"5104802";"Fuentes de beber";"122";"ORCASUR";"12";"USERA";"OPERATIVO";"440902.67";"4468658.29";"ETRS89";40.36640427;-3.69606478;"CALLE";"GINEBRO";"7";"28041";"CALLE TUYA  4";"20046752";"2019-04-15 00:00:00.0";"FUE_12_0073";"FUE22";"ZV";"PERSONAS";"CASTIZA"
"5106389";"Fuentes de beber";"103";"LUCERO";"10";"LATINA";"OPERATIVO";"436374.350";"4473303.500";"ETRS89";40.40791701;-3.74986037;"CALLE";"VILLAMANIN";"18";"28011";"ENTRE FAROLA 11 Y AREA INFANTIL";"11064021";"2019-04-30 00:00:00.0";"FUE_10_0115";"FUE22";"ZV";"PERSONAS";"CASTIZA"
"5106392";"Fuentes de beber";"107";"AGUILAS";"10";"LATINA";"OPERATIVO";"434735.950";"4470474.980";"ETRS89";40.38230981;-3.76887822;"CALLE";"ANSELMO LORENZO";"17";"28044";"PARQUE DE LOS TRES MOSQUETEROS, PROXIMO A INSTALACION DEPORTIVA";"11068697";"2019-05-10 00:00:00.0";"FUE_10_0113";"FUE22";"ZV";"PERSONAS";"CASTIZA"
"5106551";"Fuentes de beber";"107";"AGUILAS";"10";"LATINA";"OPERATIVO";"433838.760";"4470389.900";"ETRS89";40.38147262;-3.77943829;"AVENIDA";"LAS AGUILAS";"72";"28044";"PARQUE CLARA CAMPOAMOR, JUNTO AREAS INFANTILES";"11067494";"2019-05-14 00:00:00.0";"FUE_10_0114";"FUE22";"ZV";"PERSONAS";"CASTIZA"
"5106805";"Fuentes de beber";"215";"CORRALEJOS";"21";"BARAJAS";"OPERATIVO";"449704.7";"4479807.43";"ETRS89";40.46742065;-3.59327932;"CALLE";"BAHIA DE SANTA POLA";"68";"28042";"frente nº 68";"20143672";"2019-05-22 00:00:00.0";"FUE_21_0060";"FUE22";"ZV";"PERSONAS";"CASTIZA"
"5106820";"Fuentes de beber";"214";"TIMON";"21";"BARAJAS";"OPERATIVO";"449810.14";"4480009.97";"ETRS89";40.46925163;-3.59205165;"CALLE";"MISTRAL";"111";"28042";"Farola 41, junto a senda verde";"31061077";"2019-05-23 00:00:00.0";"FUE_21_0058";"FUE22";"VP";"PERSONAS";"CASTIZA"
"5107502";"Fuentes de beber";"011";"PALACIO";"01";"CENTRO";"OPERATIVO";"439737.76";"4474945.45";"ETRS89";40.42295872;-3.71037940;"CALLE";"GRAN VIA";"69";"28013";;"11000110";"2019-04-30 00:00:00.0";"FUE_01_0054";"FUE22";"VP";"PERSONAS";"FUENTE_ACCESIBLE"
"5107503";"Fuentes de beber";"013";"CORTES";"01";"CENTRO";"NO_OPERATIVO";"440824.97";"4474488.94";"ETRS89";40.41892429;-3.69752166;"CALLE";"CABALLERO DE GRACIA";"40";"28013";"C/V GRAN VÍA 1";"31008869";"2019-04-30 00:00:00.0";"FUE_01_0055";"FUE22";"VP";"PERSONAS";"FUENTE_ACCESIBLE"
"5108205";"Fuentes de beber";"145";"FONTARRON";"14";"MORATALAZ";"OPERATIVO";"444373.33";"4473031.85";"ETRS89";40.40604276;-3.65557089;"AVENIDA";"MORATALAZ";"91 B";"28030";"PARQUE DARWIN  JUEGOS INFANTILES";"11101879";"2019-05-13 00:00:00.0";"FUE_14_0104";"FUE22";"ZV";"PERSONAS";"MU-37A"
"5110229";"Fuentes de beber";"013";"CORTES";"01";"CENTRO";"OPERATIVO";"441001.17";"4473841.53";"ETRS89";40.41310462;-3.69538481;"CALLE";"HUERTAS";"71";"28014";"C/V CALLE JESÚS";"11003476";"2019-06-06 00:00:00.0";"FUE_01_0061";"FUE22";"ZV";"PERSONAS";"MU-37A"
"5124693";"Fuentes de beber";"086";"VALVERDE";"08";"FUENCARRAL-EL PARDO";"OPERATIVO";"441518.69";"4483623.18";"ETRS89";40.50125850;-3.69018667;"PLAZA";"TRES OLIVOS";"26";"28034";"FRENTE Nº26";"20150231";"2019-06-05 00:00:00.0";"FUE_08_0162";"FUE22";"ZV";"PERSONAS";"CASTIZA"
"5125347";"Fuentes de beber";"086";"VALVERDE";"08";"FUENCARRAL-EL PARDO";"OPERATIVO";"441696.33";"4483690.86";"ETRS89";40.50188068;-3.68809656;"CALLE";"ALONSO QUIJANO";"45";"28034";"ZV C/V RONDA CABALLERO DE LA MANCHA";"20051689";"2019-06-07 00:00:00.0";"FUE_08_0164";"FUE22";"ZV";"PERSONAS";"CASTIZA"
"5125348";"Fuentes de beber";"086";"VALVERDE";"08";"FUENCARRAL-EL PARDO";"OPERATIVO";"442463.65";"4484273.04";"ETRS89";40.50717875;-3.67909420;"CALLE";"BERDUN";"2 D";"28050";"C/V C/CASTILLO DE CANDANCHÚ";"31029490";"2019-06-13 00:00:00.0";"FUE_08_0165";"FUE22";"ZV";"PERSONAS";"CASTIZA"
"5125474";"Fuentes de beber";"013";"CORTES";"01";"CENTRO";"OPERATIVO";"441129.77";"4473799.75";"ETRS89";40.41273735;-3.69386532;"PLAZA";"PLATERIA DE MARTINEZ";"3";"28014";;"20005060";"2019-06-14 00:00:00.0";"FUE_01_0059";"FUE22";"VP";"PERSONAS";"MU-37A"
"5125475";"Fuentes de beber";"012";"EMBAJADORES";"01";"CENTRO";"OPERATIVO";"439964.21";"4473787.04";"ETRS89";40.41253960;-3.70760083;"CALLE";"TOLEDO";"40";"28005";"FRENTE Nº 40";"11000753";"2019-06-04 00:00:00.0";"FUE_01_0058";"FUE22";"VP";"PERSONAS";"MU-37A"
"5154605";"Fuentes de beber";"086";"VALVERDE";"08";"FUENCARRAL-EL PARDO";"OPERATIVO";"441047.33";"4483292.06";"ETRS89";40.49824229;-3.69571837;"PASEO";"ALAMEDILLAS";"6";"28034";"EN CAMINO, FRENTE CENTRO DEPORTIVO MUNICIPAL SANTA ANA";"20046526";"2019-06-24 00:00:00.0";"FUE_08_0167";"FUE22";"ZV";"PERSONAS";"CASTIZA"
"5154615";"Fuentes de beber";"086";"VALVERDE";"08";"FUENCARRAL-EL PARDO";"OPERATIVO";"442696.20";"4483556.74";"ETRS89";40.50074213;-3.67628481;"CALLE";"VILLAVA";"15";"28050";"C/V C/PUENTE LA REINA";"31023549";"2019-06-25 00:00:00.0";"FUE_08_0168";"FUE22";"ZV";"PERSONAS";"CASTIZA"
"5154625";"Fuentes de beber";"083";"PEÑAGRANDE";"08";"FUENCARRAL - EL PARDO";"OPERATIVO";"438845.032";"4480387.121";"ETRS89";40.47191427;-3.72142620;"CALLE";"JOAQUIN LORENZO";"5 B";"28035";"PARQUE ENTRE C/VALLE DE MENA Y JOAQUÍN LORENZO";"31009888";"2019-06-26 00:00:00.0";"FUE_08_0169";"FUE22";"ZV";"PERSONAS_Y_MASCOTAS";"MIXTA TERRIER"
"5176278";"Fuentes de beber";"112";"OPAÑEL";"11";"CARABANCHEL";"OPERATIVO";"437975.270";"4471116.150";"ETRS89";40.38833320;-3.73078111;"GLORIETA";"VALLE DE ORO";"4";"28019";"JUNTO QUIOSCO DE FLORES";"11070433";"2019-07-17 00:00:00.0";"FUE_11_0131";"FUE22";"VP";"PERSONAS";"FUENTE_ACCESIBLE"
"5176422";"Fuentes de beber";"016";"SOL";"01";"CENTRO";"OPERATIVO";"439948.63";"4474192.11";"ETRS89";40.41618753;-3.70782269;"CALLE";"MAYOR";"32";"28013";"C/V BORDADORES";"11007815";"2019-07-19 00:00:00.0";"FUE_01_0083";"FUE22";"VP";"PERSONAS";"MU-37A"
"5176430";"Fuentes de beber";"013";"CORTES";"01";"CENTRO";"OPERATIVO";"441045.86";"4473662.57";"ETRS89";40.41149562;-3.69484153;"CALLE";"SAN PEDRO";"20";"28014";"C/V GOBERNADOR";"11003384";"2019-06-28 00:00:00.0";"FUE_01_0068";"FUE22";"VP";"PERSONAS";"MU-37A"
"5176479";"Fuentes de beber";"183";"ENSANCHE DE VALLECAS";"18";"VILLA DE VALLECAS";"OPERATIVO";"448518.76";"4468287.54";"ETRS89";40.36356937;-3.60633554;"CALLE";"JOSE GUTIERREZ MAROTO";"43";"28051";"EN ZV JUNTO ÁREA INFANTIL C/V CERRO MILANO";"31019550";"2019-08-02 00:00:00.0";"FUE_18_0059";"FUE22";"ZV";"PERSONAS";"CASTIZA"
"5176482";"Fuentes de beber";"182";"SANTA EUGENIA";"18";"VILLA DE VALLECAS";"OPERATIVO";"447590.59";"4470489.16";"ETRS89";40.38334527;-3.61744775;"CAMINO";"VASARES";"4";"28031";"C/V AGUSTÍN GARCÍA MALLA";"31041866";"2019-07-29 00:00:00.0";"FUE_18_0061";"FUE22";"ZV";"PERSONAS";"CASTIZA"
"5180425";"Fuentes de beber";"093";"CIUDAD UNIVERSITARIA";"09";"MONCLOA-ARAVACA";"OPERATIVO";"439306.83";"4478412.78";"ETRS89";40.45416254;-3.71579009;"CALLE";"VALLS FERRERA";"5";"28040";"C/V C/VALLE DE ARÁN";"11053418";"2019-08-19 00:00:00.0";"FUE_09_0127";"FUE22";"ZV";"PERSONAS";"CASTIZA"
"529530";"Fuentes de beber";"022";"ACACIAS";"02";"ARGANZUELA";"OPERATIVO";"439688.53";"4472330.5";"ETRS89";40.39939846;-3.71071182;"PASEO";"YESERIAS";"17";"28005";"FRENTE AL Nº15";"20123835";;"FUE_02_0050";"FUE22";"VP";"PERSONAS";"PIEDRA VP"
"529531";"Fuentes de beber";"026";"PALOS DE LA FRONTERA";"02";"ARGANZUELA";"OPERATIVO";"441021.070";"4472630.960";"ETRS89";40.40220060;-3.69503808;"CALLE";"CANARIAS";"28";"28045";"FRENTE Nº 28, JUNTO PISTAS DE PETANCA";"11010070";;"FUE_02_0013";"FUE22";"ZV";"PERSONAS";"MU-S37A"
"529535";"Fuentes de beber";"032";"ADELFAS";"03";"RETIRO";"OPERATIVO";"443306.18";"4472675.61";"ETRS89";40.40276156;-3.66811492;"CALLE";"NUEVO BAZTAN";"6";"28007";"C/ARREGUI Y ARUEJ  24, JUNTO A INSTALACIONES DEPORTIVAS PARQUE ADELFAS";"11011678";;"FUE_03_0011";"FUE22";"ZV";"PERSONAS";"MU-37A"
"529536";"Fuentes de beber";"022";"ACACIAS";"02";"ARGANZUELA";"OPERATIVO";"439836.930";"4472997.910";"ETRS89";40.40542155;-3.70902628;"CALLE";"CONCEJAL BENITO MARTIN LOZANO";"9";"28005";"PARQUE FRENTE Nº 10, ENTRE CHIMENEA Y AREA INFANTIL";"20174634";;"FUE_02_0019";"FUE22";"ZV";"PERSONAS";"MU-37A"
"529540";"Fuentes de beber";"022";"ACACIAS";"02";"ARGANZUELA";"OPERATIVO";"440159.92";"4472393.53";"ETRS89";40.40000028;-3.70516327;"CALLE";"ARGANDA";"40";"28005";"FRENTE EL Nº 31 DE PASEO ESPERANZA";"20065135";;"FUE_02_0047";"FUE22";"ZV";"PERSONAS";"MU-37A"
"529542";"Fuentes de beber";"027";"ATOCHA";"02";"ARGANZUELA";"OPERATIVO";"442406.820";"4472004.370";"ETRS89";40.39665294;-3.67865211;"CALLE";"TEJO";"9";"28045";"EN PARQUE LA RONDA";"31062984";;"FUE_02_0048";"FUE22";"ZV";"PERSONAS";"MU-37A"
"529543";"Fuentes de beber";"073";"TRAFALGAR";"07";"CHAMBERI";"OPERATIVO";"440553.199";"4476487.72";"ETRS89";40.43691085;-3.70091182;"CALLE";"GARCIA DE PAREDES";"21";"28010";"CV CALLE SANTISIMA TRINIDAD";"11040339";;"FUE_07_0020";"FUE22";"VP";"PERSONAS";"MU-37C"
"529544";"Fuentes de beber";"073";"TRAFALGAR";"07";"CHAMBERI";"OPERATIVO";"440531.564";"4476011.1";"ETRS89";40.43261570;-3.70112229;"PLAZA";"OLAVIDE";"17";"28010";"Plaza de Olavide";"31048931";;"FUE_07_0014";"FUE22";"ZV";"PERSONAS";"MU-37A"
"529547";"Fuentes de beber";"022";"ACACIAS";"02";"ARGANZUELA";"OPERATIVO";"440150.390";"4472512.840";"ETRS89";40.40107439;-3.70528679;"PASEO";"JUAN ANTONIO VALLEJO-NAJERA BOTAS";"15";"28005";"C/V Pº ESPERANZA, EN PARQUE PROXIMO A AREAS INFANTILES";"31041998";;"FUE_02_0016";"FUE22";"ZV";"PERSONAS";"MU-37A"
"529549";"Fuentes de beber";"024";"LEGAZPI";"02";"ARGANZUELA";"NO_OPERATIVO";"441987.960";"4470942.710";"ETRS89";40.38705986;-3.68349073;"CALLE";"TITAN";"15";"28045";"PARQUE ENRIQUE TIERNO GALVAN, PROXIMO A MIRADOR SUR";"31011890";;"FUE_02_0031";"FUE22";"ZV";"PERSONAS";"MU-37A"
"529551";"Fuentes de beber";"036";"NIÑO JESUS";"03";"RETIRO";"OPERATIVO";"442783.55";"4473222.37";"ETRS89";40.40765133;-3.67432266;"AVENIDA";"MEDITERRANEO";"23";"28007";"C/ CONDE DE CARTAGENA 16";"20149583";;"FUE_03_0013";"FUE22";"ZV";"PERSONAS";"MU-37A"
"529552";"Fuentes de beber";"031";"PACIFICO";"03";"RETIRO";"OPERATIVO";"442414.420";"4472484.930";"ETRS89";40.40098262;-3.67860602;"CALLE";"TELLEZ";"31";"28007";"PROXIMO A AREA INFANTIL Y PISTA DE PADEL";"20088240";;"FUE_03_0018";"FUE22";"ZV";"PERSONAS";"METROPOLIS"
"529555";"Fuentes de beber";"033";"ESTRELLA";"03";"RETIRO";"OPERATIVO";"443415.04";"4474454.81";"ETRS89";40.41879698;-3.66699035;"CALLE";"SALIENTE";"10";"28007";"C/VAQUERIAS 7";"11012111";;"FUE_03_0028";"FUE22";"ZV";"PERSONAS";"MU-37A"
"529556";"Fuentes de beber";"036";"NIÑO JESUS";"03";"RETIRO";"OPERATIVO";"442669.55";"4473722.61";"ETRS89";40.41214991;-3.67571119;"CALLE";"ANUNCIACION";"8";"28009";"AVDA. MENENDEZ PELAYO.";"11013531";"2022-03-04 00:00:00.0";"FUE_03_0023";"FUE22";"ZV";"PERSONAS";"MU-37A"
"529558";"Fuentes de beber";"031";"PACIFICO";"03";"RETIRO";"OPERATIVO";"441789.360";"4473060.730";"ETRS89";40.40612626;-3.68602408;"PASEO";"INFANTA ISABEL";"4";"28014";"JUNTO FAROLA 4, EN ACERADO DE PASEO CENTRAL";"31000003";;"FUE_03_0030";"FUE22";"ZV";"PERSONAS";"PIEDRA VP"
"529560";"Fuentes de beber";"032";"ADELFAS";"03";"RETIRO";"OPERATIVO";"443401.08";"4473028.91";"ETRS89";40.40595074;-3.66702805;"CALLE";"FEDERICO MORENO TORROBA";"3";"28007";"C/ FEDERICO MORENO TORROBA Nº10";"20113508";;"FUE_03_0036";"FUE22";"ZV";"PERSONAS";"MU-37B"
"529562";"Fuentes de beber";"034";"IBIZA";"03";"RETIRO";"OPERATIVO";"442610.54";"4474400.48";"ETRS89";40.41825245;-3.67646780;"CALLE";"IBIZA";"18";"28009";;"11012393";;"FUE_03_0039";"FUE22";"VP";"PERSONAS";"MU-37G"
"5188213";"Fuentes de beber";"095";"VALDEMARIN";"09";"MONCLOA-ARAVACA";"OPERATIVO";"433919.35";"4480213.64";"ETRS89";40.46997425;-3.77950995;"AVENIDA";"VALDEMARIN";"75 C";"28023";;"20057171";"2019-09-02 00:00:00.0";"FUE_09_0128";"FUE22";"VP";"PERSONAS";"MU-37A"
"5188216";"Fuentes de beber";"095";"VALDEMARIN";"09";"MONCLOA-ARAVACA";"OPERATIVO";"435236.36";"4479640.31";"ETRS89";40.46491327;-3.76391686;"CALLE";"ARGENTONA";"23";"28023";"CV C/CERCIS";"20149180";"2019-09-03 00:00:00.0";"FUE_09_0129";"FUE22";"ZV";"PERSONAS";"CASTIZA"
"5188218";"Fuentes de beber";"096";"EL PLANTIO";"09";"MONCLOA-ARAVACA";"OPERATIVO";"429572.56";"4480577.70";"ETRS89";40.47289659;-3.83082164;"AVENIDA";"VICTORIA";"106";"28023";;"11056151";"2019-08-27 00:00:00.0";"FUE_09_0130";"FUE22";"ZV";"PERSONAS";"CASTIZA"
"5188852";"Fuentes de beber";"032";"ADELFAS";"03";"RETIRO";"OPERATIVO";"442831.73";"4472125.27";"ETRS89";40.39777136;-3.67365634;"CALLE";"BARRILERO";"2 B";"28007";"C/V SECO (PZA. LAS CALIFORNIAS)";"31022226";"2019-09-16 00:00:00.0";"FUE_03_0048";"FUE22";"ZV";"PERSONAS";"CASTIZA"
"5191204";"Fuentes de beber";"033";"ESTRELLA";"03";"RETIRO";"OPERATIVO";"443322.04";"4473352.89";"ETRS89";40.40886396;-3.66798834;"PASAJE";"LINCE";"8";"28007";"PLAZUELA VIRGEN DE LA ESTRELLA, CERCA DE ZONA INFANTIL Y PISTA DEPORTIVA";"11011886";"2019-09-19 00:00:00.0";"FUE_03_0049";"FUE22";"ZV";"PERSONAS";"CASTIZA"
"5191206";"Fuentes de beber";"036";"NIÑO JESUS";"03";"RETIRO";"NO_OPERATIVO";"442891.59";"4474155.39";"ETRS89";40.41606389;-3.67313319;"CALLE";"DOCE DE OCTUBRE";"30";"28009";"JARDINES DOCE DE OCTUBRE (FRENTE C/ MAIQUEZ)";"20104941";"2019-09-13 00:00:00.0";"FUE_03_0051";"FUE22";"ZV";"PERSONAS";"MU-37A"
"5191218";"Fuentes de beber";"207";"CANILLEJAS";"20";"SAN BLAS-CANILLEJAS";"OPERATIVO";"447853.6";"4477229.81";"ETRS89";40.44408585;-3.61490185;"CALLE";"NICOLASA GOMEZ";"9";"28022";"C/V C/ BOLTAÑA";"20158339";"2019-09-13 00:00:00.0";"FUE_20_0117";"FUE22";"ZV";"PERSONAS";"CASTIZA"
"5191220";"Fuentes de beber";"208";"EL SALVADOR";"20";"SAN BLAS-CANILLEJAS";"OPERATIVO";"447729.91";"4477240.39";"ETRS89";40.44417339;-3.61636117;"CALLE";"ALCALA";"552";"28022";"C/V C/ RODRÍGUEZ AYUSO";"11137862";"2019-09-19 00:00:00.0";"FUE_20_0118";"FUE22";"ZV";"PERSONAS";"CASTIZA"
"5191221";"Fuentes de beber";"207";"CANILLEJAS";"20";"SAN BLAS-CANILLEJAS";"OPERATIVO";"448509.37";"4477536.81";"ETRS89";40.44689236;-3.60719442;"CALLE";"GONZALO TORRENTE BALLESTER";"2";"28022";;"31016091";"2019-09-16 00:00:00.0";"FUE_20_0119";"FUE22";"ZV";"PERSONAS";"CASTIZA"
"5191236";"Fuentes de beber";"205";"ROSAS";"20";"SAN BLAS-CANILLEJAS";"OPERATIVO";"448697.91";"4477709.33";"ETRS89";40.44845818;-3.60498515;"CALLE";"MEQUINENZA";"14";"28022";"C/V GLORIETA CARLOS LLAMAS";"11137186";"2019-09-13 00:00:00.0";"FUE_20_0120";"FUE22";"VP";"PERSONAS";"CASTIZA"
"5192331";"Fuentes de beber";"208";"EL SALVADOR";"20";"SAN BLAS - CANILLEJAS";"OPERATIVO";"445227.79";"4477649.32";"ETRS89";40.44769618;-3.64589933;"CALLE";"TELEMACO";"2";"28027";"C/V GENERAL ARANAZ";"31009604";"2019-09-24 00:00:00.0";"FUE_20_0121";"FUE22";"ZV";"PERSONAS";"CASTIZA"
"5192404";"Fuentes de beber";"204";"ARCOS";"20";"SAN BLAS-CANILLEJAS";"OPERATIVO";"447589.75";"4475185.46";"ETRS89";40.42565253;-3.61784436;"CALLE";"CONSERVEROS";"17";"28037";"FRENTE Nº 17";"11135747";"2019-09-27 00:00:00.0";"FUE_20_0116";"FUE22";"ZV";"PERSONAS";"CASTIZA"
"529563";"Fuentes de beber";"034";"IBIZA";"03";"RETIRO";"OPERATIVO";"443024.35";"4474374.63";"ETRS89";40.41804802;-3.67158810;"CALLE";"IBIZA";"58";"28009";;"11012264";;"FUE_03_0040";"FUE22";"VP";"PERSONAS";"MU-37G"
"529564";"Fuentes de beber";"036";"NIÑO JESUS";"03";"RETIRO";"OPERATIVO";"443190.81";"4474204.24";"ETRS89";40.41652443;-3.66961089;"CALLE";"ALCALDE SAINZ DE BARANDA";"66";"28009";;"31001608";;"FUE_03_0041";"FUE22";"VP";"PERSONAS";"MU-37G"
"529567";"Fuentes de beber";"034";"IBIZA";"03";"RETIRO";"OPERATIVO";"442625.94";"4474250.38";"ETRS89";40.41690134;-3.67627275;"CALLE";"ALCALDE SAINZ DE BARANDA";"18";"28009";;"11012334";;"FUE_03_0044";"FUE22";"VP";"PERSONAS";"MU-37G"
"529569";"Fuentes de beber";"044";"GUINDALERA";"04";"SALAMANCA";"OPERATIVO";"443980.840";"4476498.660";"ETRS89";40.43724736;-3.66050156;"AVENIDA";"BRASILIA";"2";"28028";"ENTRE PISTAS DEPORTIVAS PARQUE BREOGAN";"31026005";;"FUE_04_0001";"FUE22";"ZV";"PERSONAS";"MU-37A"
"529572";"Fuentes de beber";"044";"GUINDALERA";"04";"SALAMANCA";"OPERATIVO";"444015.270";"4476746.720";"ETRS89";40.43948433;-3.66011749;"AVENIDA";"BRASILIA";"4";"28028";"ENTRE AREA CANINA  Y CAMPO DE FUTBITO PARQUE DE LAS AVENIDAS";"31026006";;"FUE_04_0004";"FUE22";"ZV";"PERSONAS";"MU-37A"
"529573";"Fuentes de beber";"045";"LISTA";"04";"SALAMANCA";"NO_OPERATIVO";"442427.76";"4476067.58";"ETRS89";40.43325791;-3.67877310;"CALLE";"PRINCIPE DE VERGARA";"68";"28006";"C/PRINCIPE DE VERGARA C/V C/ MALDONADO";"31035584";;"FUE_04_0007";"FUE22";"ZV";"PERSONAS";"MU-37E"
"529574";"Fuentes de beber";"044";"GUINDALERA";"04";"SALAMANCA";"OPERATIVO";"444000.02";"4476818.04";"ETRS89";40.44012579;-3.66030358;"AVENIDA";"BRASILIA";"4";"28028";"AVENIDA BRASILIA CV AVDA DE BADAJOZ";"31026006";;"FUE_04_0005";"FUE22";"ZV";"PERSONAS";"MU-37A"
"529577";"Fuentes de beber";"044";"GUINDALERA";"04";"SALAMANCA";"OPERATIVO";"443338.69";"4475751.34";"ETRS89";40.43047161;-3.66800580;"CALLE";"DOCTOR GOMEZ ULLA";"11";"28028";"JUNTO ZONAS DEPORTIVAS";"31035587";;"FUE_04_0009";"FUE22";"ZV";"PERSONAS";"MU-37A"
"529578";"Fuentes de beber";"045";"LISTA";"04";"SALAMANCA";"NO_OPERATIVO";"442407.68";"4476045.52";"ETRS89";40.43305779;-3.67900783;"CALLE";"JUAN BRAVO";"29";"28006";"C/PRINCIPE DE VERGARA C/V C/ MALDONADO";"11019466";;"FUE_04_0008";"FUE22";"ZV";"PERSONAS";"MU-37E"
"529579";"Fuentes de beber";"043";"FUENTE DEL BERRO";"04";"SALAMANCA";"OPERATIVO";"443847.270";"4475622.160";"ETRS89";40.42934238;-3.66199889;"PLAZA";"AMERICA ESPAÑOLA";"5";"28028";"JUNTO AREA INFANTIL, PROXIMO A AREA CANINA";"31047835";;"FUE_04_0012";"FUE22";"ZV";"PERSONAS";"MU-37A"
"529581";"Fuentes de beber";"043";"FUENTE DEL BERRO";"04";"SALAMANCA";"OPERATIVO";"443399.140";"4475022.390";"ETRS89";40.42390896;-3.66722828;"CALLE";"LOS PEÑASCALES";"7";"28028";"C/V C/ ANTONIO TOLEDADO, JUNTO AREA INFANTIL";"11016408";;"FUE_04_0011";"FUE22";"ZV";"PERSONAS";"MU-37A"
"5195307";"Fuentes de beber";"071";"GAZTAMBIDE";"07";"CHAMBERI";"OPERATIVO";"439630.3";"4476072.27";"ETRS89";40.43310182;-3.71175307;"CALLE";"BLASCO DE GARAY";"31";"28015";"C/V MELÉNDEZ VALDÉS (Jardines Concejal Alejandro Muñoz Revenga)";"20013200";"2019-09-25 00:00:00.0";"FUE_07_0023";"FUE22";"ZV";"PERSONAS";"MU-37A"
"5195511";"Fuentes de beber";"072";"ARAPILES";"07";"CHAMBERI";"OPERATIVO";"440249.01";"4476162.24";"ETRS89";40.43395698;-3.70446752;"GLORIETA";"QUEVEDO";"6";"28015";"C/V BRAVO MURILLO";"11039471";"2019-09-25 00:00:00.0";"FUE_07_0025";"FUE22";"VP";"PERSONAS";"MU-37A"
"5195524";"Fuentes de beber";"073";"TRAFALGAR";"07";"CHAMBERI";"OPERATIVO";"440732.83";"4476239.03";"ETRS89";40.43468336;-3.69877082;"GLORIETA";"PINTOR SOROLLA";"1";"28010";"C/V SANTA ENGRACIA 71";"11040501";"2019-09-25 00:00:00.0";"FUE_07_0026";"FUE22";"VP";"PERSONAS";"MU-37A"
"5195826";"Fuentes de beber";"074";"ALMAGRO";"07";"CHAMBERI";"OPERATIVO";"441364.71";"4476012.35";"ETRS89";40.43268611;-3.69130044;"GLORIETA";"RUBEN DARIO";"5";"28010";"C/V ALMAGRO";"11041187";"2019-10-01 00:00:00.0";"FUE_07_0027";"FUE22";"VP";"PERSONAS";"MU-37A"
"5195834";"Fuentes de beber";"075";"RIOS ROSAS";"07";"CHAMBERI";"OPERATIVO";"441097.21";"4476751.74";"ETRS89";40.43932797;-3.69452254;"CALLE";"BRETON DE LOS HERREROS";"46";"28003";"C/V FERNÁNDEZ DE LA HOZ";"11041596";"2019-10-04 00:00:00.0";"FUE_07_0028";"FUE22";"VP";"PERSONAS";"MU-37A"
"5196930";"Fuentes de beber";"076";"VALLEHERMOSO";"07";"CHAMBERI";"OPERATIVO";"439589.95";"4477540.68";"ETRS89";40.44632694;-3.71236837;"AVENIDA";"REINA VICTORIA";"55";"28003";"C/V GUZMÁN EL BUENO";"31006828";"2019-10-10 00:00:00.0";"FUE_07_0030";"FUE22";"ZV";"PERSONAS";"MU-37B"
"5202139";"Fuentes de beber";"012";"EMBAJADORES";"01";"CENTRO";"OPERATIVO";"441076.94";"4473375.67";"ETRS89";40.40891329;-3.69444867;"CALLE";"DOCTOR MATA";"2";"28012";"C/V PLAZA JUAN GOYTISOLO";"11003136";"2019-10-15 00:00:00.0";"FUE_01_0073";"FUE22";"ZV";"PERSONAS";"OTRO"
"5205390";"Fuentes de beber";"201";"SIMANCAS";"20";"SAN BLAS-CANILLEJAS";"OPERATIVO";"447168.08";"4476151.6";"ETRS89";40.43432942;-3.62289528;"CALLE";"EMILIO MUÑOZ";"57";"28037";"CV C/ CASTILLO DE UCLES";"11133638";"2019-10-24 00:00:00.0";"FUE_20_0122";"FUE22";"VP";"PERSONAS";"MU-37A"
"5205477";"Fuentes de beber";"012";"EMBAJADORES";"01";"CENTRO";"OPERATIVO";"439879.79";"4473088.97";"ETRS89";40.40624496;-3.70852981;"PLAZA";"CAMPILLO DEL MUNDO NUEVO";"3 B";"28005";;"31035660";"2019-10-15 00:00:00.0";"FUE_01_0076";"FUE22";"ZV";"PERSONAS";"MU-37A"
"5205478";"Fuentes de beber";"011";"PALACIO";"01";"CENTRO";"OPERATIVO";"439480.39";"4473479.01";"ETRS89";40.40972968;-3.71327357;"CALLE";"CALATRAVA";"37";"28005";"c/v Calle del Ángel";"20000214";"2019-10-15 00:00:00.0";"FUE_01_0077";"FUE22";"VP";"PERSONAS";"MU-37A"
"5205479";"Fuentes de beber";"011";"PALACIO";"01";"CENTRO";"OPERATIVO";"439403.92";"4473600.19";"ETRS89";40.41081576;-3.71418631;"PLAZA";"SAN FRANCISCO";"5";"28005";"C/V CALLE SAN BUENAVENTURA";"11001067";;"FUE_01_0078";"FUE22";"VP";"PERSONAS";"MU-37A"
"5205480";"Fuentes de beber";"011";"PALACIO";"01";"CENTRO";"OPERATIVO";"438926.15";"4474579.57";"ETRS89";40.41960353;-3.71991092;"PASEO";"VIRGEN DEL PUERTO";"1";"28005";"C/V GTA SAN VICENTE";"31002668";"2019-10-15 00:00:00.0";"FUE_01_0079";"FUE22";"ZV";"PERSONAS";"MU-37A"
"529585";"Fuentes de beber";"053";"CIUDAD JARDIN";"05";"CHAMARTIN";"OPERATIVO";"442961.32";"4477809.57";"ETRS89";40.44898737;-3.67263927;"CALLE";"PRADILLO";"23";"28002";"Junto a pistas deportivas";"20094371";;"FUE_05_0051";"FUE22";"ZV";"PERSONAS";"MU-37A"
"529586";"Fuentes de beber";"053";"CIUDAD JARDIN";"05";"CHAMARTIN";"OPERATIVO";"442716.320";"4477940.990";"ETRS89";40.45015442;-3.67554015;"CALLE";"MARCENADO";"51";"28002";"DENTRO DEL PARQUE BERLÍN, CERCA DEL AUDITORIO";"31044661";"2020-08-14 00:00:00.0";"FUE_05_0050";"FUE22";"ZV";"PERSONAS";"MU-37A"
"529588";"Fuentes de beber";"042";"GOYA";"04";"SALAMANCA";"OPERATIVO";"442884.620";"4475062.160";"ETRS89";40.42423207;-3.67329677;"CALLE";"ANTONIA MERCE";"5 B";"28009";"JUNTO ROCODROMO Y AREA INFANTIL";"31050634";;"FUE_04_0025";"FUE22";"ZV";"PERSONAS";"OTRO"
"529590";"Fuentes de beber";"054";"HISPANOAMERICA";"05";"CHAMARTIN";"OPERATIVO";"443285.725";"4478832.2";"ETRS89";40.45822191;-3.66890526;"CALLE";"COLOMBIA";"59";"28016";"JUNTO A PISTA DE PATINAJE";"31045302";;"FUE_05_0008";"FUE22";"ZV";"PERSONAS";"MU-37A"
"529591";"Fuentes de beber";"055";"NUEVA ESPAÑA";"05";"CHAMARTIN";"OPERATIVO";"441539.168";"4479180.292";"ETRS89";40.46123664;-3.68953535;"PASEO";"CASTELLANA";"180";"28046";"PSO. DE LA CASTELLANA Nº 182";"11025643";;"FUE_05_0001";"FUE22";"ZV";"PERSONAS";"OTRO"
"529597";"Fuentes de beber";"051";"EL VISO";"05";"CHAMARTIN";"OPERATIVO";"442269.068";"4477120.420";"ETRS89";40.44273140;-3.68073960;"CALLE";"DUQUE DE SEVILLA";"15";"28002";"CALLE GAGRIEL LOBO CV DUQUE DE SEVILLA";"20009414";"2015-04-14 00:00:00.0";"FUE_05_0017";"FUE22";"ZV";"PERSONAS";"FUENTE_ACCESIBLE"
"529599";"Fuentes de beber";"053";"CIUDAD JARDIN";"05";"CHAMARTIN";"OPERATIVO";"442698.581";"4477741.498";"ETRS89";40.44835608;-3.67573133;"CALLE";"PRADILLO";"6";"28002";;"11024222";;"FUE_05_0070";"FUE22";"ZV";"PERSONAS";"MU-37A"
"529601";"Fuentes de beber";"053";"CIUDAD JARDIN";"05";"CHAMARTIN";"OPERATIVO";"443049.44";"4477636.90";"ETRS89";40.44743792;-3.67158469;"CALLE";"NIEREMBERG";"8";"28002";"CALLE NIEREMBERG 8";"11023702";;"FUE_05_0021";"FUE22";"VP";"PERSONAS";"MU-37A"
"529602";"Fuentes de beber";"052";"PROSPERIDAD";"05";"CHAMARTIN";"OPERATIVO";"443613.758";"4477231.772";"ETRS89";40.44382679;-3.66489448;"CALLE";"SANTA HORTENSIA";"34";"28002";"C/SANTA HORTENSIA Nº30";"31025357";;"FUE_05_0029";"FUE22";"ZV";"PERSONAS";"MU-37A"
"529607";"Fuentes de beber";"054";"HISPANOAMERICA";"05";"CHAMARTIN";"OPERATIVO";"442395.545";"4478671.908";"ETRS89";40.45671670;-3.67938907;"CALLE";"POTOSI";"6";"28016";"CALLE POTOSI Nº 5";"31049576";;"FUE_05_0011";"FUE22";"ZV";"PERSONAS";"MU-37A"
"529609";"Fuentes de beber";"055";"NUEVA ESPAÑA";"05";"CHAMARTIN";"OPERATIVO";"443140.91";"4479425.11";"ETRS89";40.46355322;-3.67066626;"CALLE";"DRACENA";"23";"28016";"JUNTO A QUIOSCO PRÓXIMO A LA PARROQUIA";"11026869";;"FUE_05_0030";"FUE22";"ZV";"PERSONAS";"MU-37A"
"529611";"Fuentes de beber";"053";"CIUDAD JARDIN";"05";"CHAMARTIN";"OPERATIVO";"442656.286";"4477464.657";"ETRS89";40.44585925;-3.67620507;"CALLE";"VINAROZ";"15";"28002";"C/GARCIA LUNA Nº3";"11024021";;"FUE_05_0035";"FUE22";"ZV";"PERSONAS";"MU-37A"
"5205483";"Fuentes de beber";"151";"VENTAS";"15";"CIUDAD LINEAL";"OPERATIVO";"444256.68";"4474773.1";"ETRS89";40.42172112;-3.65709811;"AVENIDA";"MARQUES DE CORBERA";"2";"28017";"JUNTO A CARRIL BICI";"20104438";"2019-10-15 00:00:00.0";"FUE_15_0126";"FUE22";"VP";"PERSONAS";"CASTIZA"
"5205485";"Fuentes de beber";"151";"VENTAS";"15";"CIUDAD LINEAL";"OPERATIVO";"444081.42";"4475329.42";"ETRS89";40.42672099;-3.65921286;"CALLE";"SAN EMILIO";"39";"28017";"FRENTE AL 39";"11104325";"2019-10-15 00:00:00.0";"FUE_15_0127";"FUE22";"ZV";"PERSONAS";"CASTIZA"
"5205486";"Fuentes de beber";"152";"PUEBLO NUEVO";"15";"CIUDAD LINEAL";"OPERATIVO";"445702.57";"4475018.57";"ETRS89";40.42402806;-3.64007605;"CALLE";"ARRIAGA";"73";"28017";"FRENTE AL 73. PARQUE ARRIAGA. ÁREA INFANTIL";"11107027";"2019-10-31 00:00:00.0";"FUE_15_0128";"FUE22";"ZV";"PERSONAS";"CASTIZA"
"5205487";"Fuentes de beber";"152";"PUEBLO NUEVO";"15";"CIUDAD LINEAL";"OPERATIVO";"445987.61";"4475938.06";"ETRS89";40.43232991;-3.63679423;"CALLE";"JOSE ARCONES GIL";"58";"28017";"PRÓXIMO A C/ ALUCAS, 2";"20177602";"2019-10-15 00:00:00.0";"FUE_15_0129";"FUE22";"VP";"PERSONAS";"MU-37A"
"5209645";"Fuentes de beber";"044";"GUINDALERA";"04";"SALAMANCA";"OPERATIVO";"443134.07";"4475749.44";"ETRS89";40.43044053;-3.67041783;"CALLE";"FRANCISCO SILVELA";"12";"28028";"C/V C/FLORESTAN AGUILAR";"11017054";"2019-10-31 00:00:00.0";"FUE_04_0045";"FUE22";"VP";"PERSONAS";"MU-37A"
"5209646";"Fuentes de beber";"044";"GUINDALERA";"04";"SALAMANCA";"OPERATIVO";"443889.59";"4476434.97";"ETRS89";40.43666745;-3.66157176;"CALLE";"BRESCIA";"21";"28028";"C/V AV. BRASILIA";"31007330";"2019-11-04 00:00:00.0";"FUE_04_0049";"FUE22";"ZV";"PERSONAS";"CASTIZA"
"5209651";"Fuentes de beber";"044";"GUINDALERA";"04";"SALAMANCA";"OPERATIVO";"442813.21";"4476215.66";"ETRS89";40.43461848;-3.67424230;"CALLE";"FRANCISCO SILVELA";"52 B";"28028";"CV C/ALONSO HEREDIA";"31031858";;"FUE_04_0046";"FUE22";"VP";"PERSONAS";"MU-37A"
"5211266";"Fuentes de beber";"044";"GUINDALERA";"04";"SALAMANCA";"OPERATIVO";"443510.36";"4476706.38";"ETRS89";40.43908678;-3.66606693;"CALLE";"LA POVEDA";"1";"28028";"CV C/ PARRAL";"11018256";"2019-11-13 00:00:00.0";"FUE_04_0048";"FUE22";"ZV";"PERSONAS";"CASTIZA"
"5211481";"Fuentes de beber";"044";"GUINDALERA";"04";"SALAMANCA";"OPERATIVO";"443892.640";"4477135.200";"ETRS89";40.44297569;-3.66159764;"AVENIDA";"BAVIERA";"20";"28028";"JUNTO FAROLA 33 Y AREA INFANTIL";"11017901";;"FUE_04_0050";"FUE22";"ZV";"PERSONAS";"MU-37A"
"5211483";"Fuentes de beber";"166";"VALDEFUENTES";"16";"HORTALEZA";"OPERATIVO";"446617";"4480835.31";"ETRS89";40.47648766;-3.62978606;"CALLE";"MARIA MOLINER";"6";"28055";"C/V C/ MARÍA BLANCHAR";"20160485";"2019-11-14 00:00:00.0";"FUE_16_0161";"FUE22";"ZV";"PERSONAS";"CASTIZA"
"5212756";"Fuentes de beber";"061";"BELLAS VISTAS";"06";"TETUAN";"OPERATIVO";"439905.52";"4478695.61";"ETRS89";40.45675389;-3.70875668;"CALLE";"FRANCOS RODRIGUEZ";"51";"28039";;"20010664";"2019-11-25 00:00:00.0";"FUE_06_0087";"FUE22";"VP";"PERSONAS";"MU-37A"
"5212760";"Fuentes de beber";"061";"BELLAS VISTAS";"06";"TETUAN";"OPERATIVO";"439768.4";"4478769.62";"ETRS89";40.45741067;-3.71038078;"CALLE";"FRANCOS RODRIGUEZ";"67";"28039";"FRENTE Nº84";"11028322";"2019-10-29 00:00:00.0";"FUE_06_0088";"FUE22";"ZV";"PERSONAS";"MU-37A"
"5214439";"Fuentes de beber";"162";"PIOVERA";"16";"HORTALEZA";"OPERATIVO";"445895.51";"4477820.79";"ETRS89";40.44928460;-3.63804034;"AVENIDA";"CARONDELET";"37";"28043";"PINAR DE BARAJAS Z.F.";"31054811";;"FUE_16_0166";"FUE22";"ZV";"PERSONAS";"MU-S37A"
"5216163";"Fuentes de beber";"191";"CASCO HISTORICO DE VICALVARO";"19";"VICALVARO";"OPERATIVO";"447810.72";"4473254.25";"ETRS89";40.40826886;-3.61508112;"CALLE";"CASALARREINA";"32";"28032";"PARQUE LA MACETA";"31045386";"2019-11-25 00:00:00.0";"FUE_19_0141";"FUE22";"ZV";"PERSONAS";"CASTIZA"
"5216216";"Fuentes de beber";"191";"CASCO H.VICALVARO";"19";"VICALVARO";"OPERATIVO";"448972.77";"4472737.45";"ETRS89";40.40368522;-3.60134497;"CALLE";"SAN CIPRIANO";"74";"28032";"FRENTE Nº 55";"31049238";"2019-11-27 00:00:00.0";"FUE_19_0142";"FUE22";"ZV";"PERSONAS";"CASTIZA"
"5216235";"Fuentes de beber";"193";"VALDERRIVAS";"19";"VICALVARO";"OPERATIVO";"448541.28";"4471642.73";"ETRS89";40.39379669;-3.60634123;"AVENIDA";"DE LAS COMUNIDADES";"161";"28032";"ZV POSTERIOR C/ MINERVA Nº157";"20180442";"2019-11-28 00:00:00.0";"FUE_19_0143";"FUE22";"ZV";"PERSONAS_Y_MASCOTAS";"MIXTA TERRIER"
"5219912";"Fuentes de beber";"072";"ARAPILES";"07";"CHAMBERI";"OPERATIVO";"439733.47";"4476105.84";"ETRS89";40.43341171;-3.71053998;"CALLE";"GALILEO";"35";"28015";"Parque José Luis Sampedro";"31044128";"2019-12-26 00:00:00.0";"FUE_07_0032";"FUE22";"ZV";"MASCOTAS";"BEBEDERO TERRIER"
"529612";"Fuentes de beber";"051";"EL VISO";"05";"CHAMARTIN";"OPERATIVO";"441435.977";"4477923.897";"ETRS89";40.44991122;-3.69063649;"PASEO";"CASTELLANA";"128";"28046";"PSO. DE LA CASTELLANA Nº 128";"11020879";;"FUE_05_0005";"FUE22";"ZV";"PERSONAS";"MU-37B"
"529617";"Fuentes de beber";"055";"NUEVA ESPAÑA";"05";"CHAMARTIN";"OPERATIVO";"442838.296";"4478938.323";"ETRS89";40.45914726;-3.67419159;"CALLE";"PUERTO RICO";"54";"28016";"C/PUERTO RICO Nº52";"11026445";;"FUE_05_0031";"FUE22";"ZV";"PERSONAS";"MU-37A"
"529619";"Fuentes de beber";"055";"NUEVA ESPAÑA";"05";"CHAMARTIN";"OPERATIVO";"442702.949";"4479247.666";"ETRS89";40.46192464;-3.67581575;"AVENIDA";"PIO XII";"15";"28016";"AVDA. PIO XII Nº4";"11026266";;"FUE_05_0006";"FUE22";"ZV";"PERSONAS";"OTRO"
"529622";"Fuentes de beber";"052";"PROSPERIDAD";"05";"CHAMARTIN";"OPERATIVO";"443838.812";"4477511.541";"ETRS89";40.44636232;-3.66226559;"CALLE";"MARTIN MACHIO";"46";"28002";"C/MACHIO Nº46";"11022845";;"FUE_05_0034";"FUE22";"ZV";"PERSONAS";"PIEDRA VP"
"529627";"Fuentes de beber";"055";"NUEVA ESPAÑA";"05";"CHAMARTIN";"OPERATIVO";"442722.997";"4479652.708";"ETRS89";40.46557482;-3.67561586;"AVENIDA";"PIO XII";"51";"28016";"c/v COMANDANTE FRANCO";"11026138";;"FUE_05_0066";"FUE22";"VP";"PERSONAS";"PIEDRA VP"
"529630";"Fuentes de beber";"086";"VALVERDE";"08";"FUENCARRAL-EL PARDO";"OPERATIVO";"443432.239";"4484851.356";"ETRS89";40.51245506;-3.66771448;"CALLE";"PORTOMARIN";"21";"28050";;"31050947";;"FUE_08_0003";"FUE22";"ZV";"PERSONAS";"EGEA"
"5220275";"Fuentes de beber";"127";"PRADOLONGO";"12";"USERA";"OPERATIVO";"439845.78";"4469898.55";"ETRS89";40.37750160;-3.70862926;"CALLE";"CRISTO DE LA VICTORIA";"245";"28026";"PARQUE DE PRADOLONGO";"31028698";"2023-06-16 00:00:00.0";"FUE_12_0075";"FUE22";"ZV";"PERSONAS_Y_MASCOTAS";"MIXTA ESTELA"
"5220283";"Fuentes de beber";"127";"PRADOLONGO";"12";"USERA";"OPERATIVO";"440330.58";"4469741.16";"ETRS89";40.37611860;-3.70290388;"CALLE";"DOCTOR TOLOSA LATOUR";"14 B";"28026";"JUNTO PISTAS DEPORTIVAS";"31070728";"2023-06-30 00:00:00.0";"FUE_12_0078";"FUE22";"ZV";"PERSONAS_Y_MASCOTAS";"MIXTA ESTELA"
"5220287";"Fuentes de beber";"127";"PRADOLONGO";"12";"USERA";"OPERATIVO";"439997.78";"4469323.21";"ETRS89";40.37232959;-3.70678463;"AVENIDA";"POBLADOS";"167";"28041";"AV POBLADOS 146 JUNTO GASOLINERA";"31007158";"2020-01-10 00:00:00.0";"FUE_12_0079";"FUE22";"ZV";"PERSONAS_Y_MASCOTAS";"MIXTA ESTELA"
