ID,GEO_ID,Address_ID,COD_BARRIO,BARRIO,links_barrio,COD_DISTRITO,DISTRITO,links_district,ESTADO,LATITUD,LONGITUD,TIPO_VIA,NOM_VIA,NUM_VIA,COD_POSTAL,CODIGO_INTERNO,MODELO
468220,468220_GEO,468220_Address_ID,154,LA CONCEPCIÓN,https://wikidata.org/entity/Q11915156,15,Ciudad Lineal,https://wikidata.org/entity/Q1763694,OPERATIVO,40.44170012,-3.64912004,CALLE,BATERIAS,8,28027,227458,50_LTS_EX
467503,467503_GEO,467503_Address_ID,154,LA CONCEPCIÓN,https://wikidata.org/entity/Q11915156,15,Ciudad Lineal,https://wikidata.org/entity/Q1763694,OPERATIVO,40.44683516,-3.64490396,CALLE,MARQUES DE PORTUGALETE,18,28027,226694,50_LTS_EX
467591,467591_GEO,467591_Address_ID,154,LA CONCEPCIÓN,https://wikidata.org/entity/Q11915156,15,Ciudad Lineal,https://wikidata.org/entity/Q1763694,OPERATIVO,40.44175709,-3.643862,CALLE,MANIPA,79,28027,226784,50_LTS_EX
468077,468077_GEO,468077_Address_ID,154,LA CONCEPCIÓN,https://wikidata.org/entity/Q11915156,15,Ciudad Lineal,https://wikidata.org/entity/Q1763694,OPERATIVO,40.44155209,-3.64796602,CALLE,DOCTOR VALLEJO,99,28027,227309,50_LTS_EX
468305,468305_GEO,468305_Address_ID,154,LA CONCEPCIÓN,https://wikidata.org/entity/Q11915156,15,Ciudad Lineal,https://wikidata.org/entity/Q1763694,OPERATIVO,40.4430051,-3.63993801,CALLE,MARQUES DE HOYOS,7,28027,227546,50_LTS_EX
469019,469019_GEO,469019_Address_ID,154,LA CONCEPCIÓN,https://wikidata.org/entity/Q11915156,15,Ciudad Lineal,https://wikidata.org/entity/Q1763694,OPERATIVO,40.43971412,-3.65036305,CALLE,VIRGEN DEL VAL,48,28027,228320,50_LTS_EX
469101,469101_GEO,469101_Address_ID,154,LA CONCEPCIÓN,https://wikidata.org/entity/Q11915156,15,Ciudad Lineal,https://wikidata.org/entity/Q1763694,OPERATIVO,40.43642413,-3.65395301,CALLE,VIRGEN DE LA FUENCISLA,4,28027,228411,50_LTS_EX
469141,469141_GEO,469141_Address_ID,154,LA CONCEPCIÓN,https://wikidata.org/entity/Q11915156,15,Ciudad Lineal,https://wikidata.org/entity/Q1763694,OPERATIVO,40.43600008,-3.65091902,CALLE,JOSE DEL HIERRO,3,28027,228454,50_LTS_EX
469252,469252_GEO,469252_Address_ID,154,LA CONCEPCIÓN,https://wikidata.org/entity/Q11915156,15,Ciudad Lineal,https://wikidata.org/entity/Q1763694,OPERATIVO,40.43905516,-3.647868,CALLE,VIRGEN DEL PORTILLO,39,28027,228576,50_LTS_EX
469041,469041_GEO,469041_Address_ID,154,LA CONCEPCIÓN,https://wikidata.org/entity/Q11915156,15,Ciudad Lineal,https://wikidata.org/entity/Q1763694,OPERATIVO,40.4378341,-3.65241195,CALLE,VIRGEN DE LA MONJIA,7,28027,228344,50_LTS_EX
469144,469144_GEO,469144_Address_ID,154,LA CONCEPCIÓN,https://wikidata.org/entity/Q11915156,15,Ciudad Lineal,https://wikidata.org/entity/Q1763694,OPERATIVO,40.43811012,-3.64959994,CALLE,VIRGEN DEL PORTILLO,29,28027,228457,50_LTS_EX
469290,469290_GEO,469290_Address_ID,154,LA CONCEPCIÓN,https://wikidata.org/entity/Q11915156,15,Ciudad Lineal,https://wikidata.org/entity/Q1763694,OPERATIVO,40.43989013,-3.64642,CALLE,DOCTOR VALLEJO,57,28027,228619,50_LTS_EX
469815,469815_GEO,469815_Address_ID,154,LA CONCEPCIÓN,https://wikidata.org/entity/Q11915156,15,Ciudad Lineal,https://wikidata.org/entity/Q1763694,OPERATIVO,40.43615361,-3.65889998,CALLE,VIRGEN DE LOURDES,4,28027,229184,50_LTS_EX
469908,469908_GEO,469908_Address_ID,154,LA CONCEPCIÓN,https://wikidata.org/entity/Q11915156,15,Ciudad Lineal,https://wikidata.org/entity/Q1763694,OPERATIVO,40.43351015,-3.65764001,CALLE,VIRGEN DEL CORO,15,28027,229287,50_LTS_EX
469866,469866_GEO,469866_Address_ID,154,LA CONCEPCIÓN,https://wikidata.org/entity/Q11915156,15,Ciudad Lineal,https://wikidata.org/entity/Q1763694,OPERATIVO,40.43456016,-3.65645001,AVENIDA,DONOSTIARRA,26,28027,229240,50_LTS_EX
469875,469875_GEO,469875_Address_ID,154,LA CONCEPCIÓN,https://wikidata.org/entity/Q11915156,15,Ciudad Lineal,https://wikidata.org/entity/Q1763694,OPERATIVO,40.43477908,-3.65823905,AVENIDA,DONOSTIARRA,12,28027,229249,50_LTS_EX
469883,469883_GEO,469883_Address_ID,154,LA CONCEPCIÓN,https://wikidata.org/entity/Q11915156,15,Ciudad Lineal,https://wikidata.org/entity/Q1763694,OPERATIVO,40.43413014,-3.65847996,CALLE,VIRGEN DE LA ROCA,4 B,28027,229257,50_LTS_EX
469978,469978_GEO,469978_Address_ID,154,LA CONCEPCIÓN,https://wikidata.org/entity/Q11915156,15,Ciudad Lineal,https://wikidata.org/entity/Q1763694,OPERATIVO,40.43415314,-3.65592505,CALLE,ALCALDE LOPEZ CASERO,20,28027,229365,50_LTS_EX
470076,470076_GEO,470076_Address_ID,154,LA CONCEPCIÓN,https://wikidata.org/entity/Q11915156,15,Ciudad Lineal,https://wikidata.org/entity/Q1763694,OPERATIVO,40.43674513,-3.64995797,CALLE,VIRGEN DEL SAGRARIO,24,28027,229467,50_LTS_EX
474089,474089_GEO,474089_Address_ID,084,PILAR,,08,Fuencarral-El Pardo,https://wikidata.org/entity/Q656196,OPERATIVO,40.47845012,-3.71586996,PLAZA,PUERTO DE LA CRUZ,3,28029,233710,50_LTS_EX
478349,478349_GEO,478349_Address_ID,175,ANGELES,,17,Villaverde,https://wikidata.org/entity/Q919536,OPERATIVO,40.34668314,-3.69502199,CALLE,CIFUENTES,3,28021,216108,50_LTS_EX
485365,485365_GEO,485365_Address_ID,084,PILAR,,08,Fuencarral-El Pardo,https://wikidata.org/entity/Q656196,OPERATIVO,40.47745917,-3.70371797,CALLE,GINZO DE LIMIA,23,28029,234646,50_LTS_EX
486842,486842_GEO,486842_Address_ID,084,PILAR,,08,Fuencarral-El Pardo,https://wikidata.org/entity/Q656196,OPERATIVO,40.47705013,-3.71616005,AVENIDA,MONFORTE DE LEMOS,180,28035,236221,50_LTS_EX
511969,511969_GEO,511969_Address_ID,175,ANGELES,,17,Villaverde,https://wikidata.org/entity/Q919536,OPERATIVO,40.35276412,-3.69770999,CALLE,ANOETA,16 B,28041,263499,50_LTS_EX
514018,514018_GEO,514018_Address_ID,171,VILLAVERDE ALTO C.H.,,17,Villaverde,https://wikidata.org/entity/Q919536,OPERATIVO,40.34233011,-3.70727996,CALLE,DOMINGO PARRAGA,2 A,28021,265720,50_LTS_EX
514490,514490_GEO,514490_Address_ID,084,PILAR,,08,Fuencarral-El Pardo,https://wikidata.org/entity/Q656196,OPERATIVO,40.47287009,-3.70465001,CALLE,RIBADAVIA,47,28029,266269,50_LTS_EX
514493,514493_GEO,514493_Address_ID,084,PILAR,,08,Fuencarral-El Pardo,https://wikidata.org/entity/Q656196,OPERATIVO,40.48285015,-3.70943,CALLE,FERMIN CABALLERO,59,28034,266272,50_LTS_EX
514502,514502_GEO,514502_Address_ID,175,ANGELES,,17,Villaverde,https://wikidata.org/entity/Q919536,OPERATIVO,40.34982016,-3.70135998,CALLE,ALCOCER,35,28021,266282,50_LTS_EX
514652,514652_GEO,514652_Address_ID,175,ANGELES,,17,Villaverde,https://wikidata.org/entity/Q919536,OPERATIVO,40.35283015,-3.69500997,CALLE,ANOETA,10,28041,266448,50_LTS_EX
514712,514712_GEO,514712_Address_ID,175,ANGELES,,17,Villaverde,https://wikidata.org/entity/Q919536,OPERATIVO,40.35057013,-3.69811997,TRAVESÍA,ARECHAVALETA,5,28041,266516,50_LTS_EX
514711,514711_GEO,514711_Address_ID,175,ANGELES,,17,Villaverde,https://wikidata.org/entity/Q919536,OPERATIVO,40.35124008,-3.69886003,CALLE,TOTANES,1,28041,266515,50_LTS_EX
512476,512476_GEO,512476_Address_ID,084,PILAR,,08,Fuencarral-El Pardo,https://wikidata.org/entity/Q656196,OPERATIVO,40.48471409,-3.70822703,CALLE,GINZO DE LIMIA,51,28034,264056,50_LTS_EX
514643,514643_GEO,514643_Address_ID,175,ANGELES,,17,Villaverde,https://wikidata.org/entity/Q919536,OPERATIVO,40.36167513,-3.69537203,CALLE,LA CORTE DE FARAON,3,28041,266438,50_LTS_EX
514644,514644_GEO,514644_Address_ID,175,ANGELES,,17,Villaverde,https://wikidata.org/entity/Q919536,OPERATIVO,40.36337815,-3.69668601,CALLE,MENASALBAS,8,28041,266439,50_LTS_EX
514645,514645_GEO,514645_Address_ID,175,ANGELES,,17,Villaverde,https://wikidata.org/entity/Q919536,OPERATIVO,40.35743709,-3.69442204,CALLE,PAN Y TOROS,50,28041,266440,50_LTS_EX
514646,514646_GEO,514646_Address_ID,175,ANGELES,,17,Villaverde,https://wikidata.org/entity/Q919536,OPERATIVO,40.35339111,-3.69357695,PASEO,GIGANTES Y CABEZUDOS,62,28041,266441,50_LTS_EX
514647,514647_GEO,514647_Address_ID,175,ANGELES,,17,Villaverde,https://wikidata.org/entity/Q919536,OPERATIVO,40.35990815,-3.69745502,CALLE,LA DEL MANOJO DE ROSAS,14,28041,266443,50_LTS_EX
514648,514648_GEO,514648_Address_ID,175,ANGELES,,17,Villaverde,https://wikidata.org/entity/Q919536,OPERATIVO,40.35779017,-3.69724995,CALLE,LA DEL MANOJO DE ROSAS,39,28041,266444,50_LTS_EX
514650,514650_GEO,514650_Address_ID,175,ANGELES,,17,Villaverde,https://wikidata.org/entity/Q919536,OPERATIVO,40.35916016,-3.69906004,CALLE,LA CANCION DEL OLVIDO,25,28041,266446,50_LTS_EX
514649,514649_GEO,514649_Address_ID,175,ANGELES,,17,Villaverde,https://wikidata.org/entity/Q919536,OPERATIVO,40.35643508,-3.69717899,CALLE,LA DEL MANOJO DE ROSAS,58,28041,304416,50_LTS_EX
514651,514651_GEO,514651_Address_ID,175,ANGELES,,17,Villaverde,https://wikidata.org/entity/Q919536,OPERATIVO,40.36069015,-3.69838005,CALLE,LA CANCION DEL OLVIDO,5,28041,266447,50_LTS_EX
514653,514653_GEO,514653_Address_ID,175,ANGELES,,17,Villaverde,https://wikidata.org/entity/Q919536,OPERATIVO,40.35458012,-3.69429994,CALLE,LA DOLOROSA,11,28041,266449,50_LTS_EX
514654,514654_GEO,514654_Address_ID,175,ANGELES,,17,Villaverde,https://wikidata.org/entity/Q919536,OPERATIVO,40.36011011,-3.69423995,CALLE,PAN Y TOROS,9,28041,266450,50_LTS_EX
514656,514656_GEO,514656_Address_ID,175,ANGELES,,17,Villaverde,https://wikidata.org/entity/Q919536,OPERATIVO,40.35779011,-3.69403998,CALLE,PAN Y TOROS,37,28041,266452,50_LTS_EX
514655,514655_GEO,514655_Address_ID,175,ANGELES,,17,Villaverde,https://wikidata.org/entity/Q919536,OPERATIVO,40.35911512,-3.694277,CALLE,PAN Y TOROS,21,28041,266451,50_LTS_EX
514709,514709_GEO,514709_Address_ID,175,ANGELES,,17,Villaverde,https://wikidata.org/entity/Q919536,OPERATIVO,40.35097911,-3.70235195,CALLE,ANOETA,63,28041,266511,50_LTS_EX
514710,514710_GEO,514710_Address_ID,175,ANGELES,,17,Villaverde,https://wikidata.org/entity/Q919536,OPERATIVO,40.35451012,-3.69925001,CALLE,LA DEL MANOJO DE ROSAS,96,28041,266513,50_LTS_EX
514739,514739_GEO,514739_Address_ID,171,VILLAVERDE ALTO C.H.,,17,Villaverde,https://wikidata.org/entity/Q919536,OPERATIVO,40.34833009,-3.71326995,CALLE,HUERTA DE VILLAVERDE,15,28021,266545,50_LTS_EX
513623,513623_GEO,513623_Address_ID,175,ANGELES,,17,Villaverde,https://wikidata.org/entity/Q919536,OPERATIVO,40.3498521,-3.69593802,CALLE,PIMIENTA,9,28021,265301,50_LTS_EX
514963,514963_GEO,514963_Address_ID,191,CASCO H.VICALVARO,,19,Vicálvaro,https://wikidata.org/entity/Q589403,OPERATIVO,40.40254717,-3.60731301,AVENIDA,REAL,11,28032,266779,50_LTS_EX
514969,514969_GEO,514969_Address_ID,191,CASCO H.VICALVARO,,19,Vicálvaro,https://wikidata.org/entity/Q589403,OPERATIVO,40.40353012,-3.60453,CALLE,JARDIN DE LA DUQUESA,14 B,28032,266785,50_LTS_EX
514975,514975_GEO,514975_Address_ID,191,CASCO H.VICALVARO,,19,Vicálvaro,https://wikidata.org/entity/Q589403,OPERATIVO,40.4033601,-3.59878999,CALLE,MINERVA,15,28032,266791,50_LTS_EX
514976,514976_GEO,514976_Address_ID,191,CASCO H.VICALVARO,,19,Vicálvaro,https://wikidata.org/entity/Q589403,OPERATIVO,40.40480314,-3.60155703,CALLE,FORGES,15,28032,266792,50_LTS_EX
516222,516222_GEO,516222_Address_ID,175,ANGELES,,17,Villaverde,https://wikidata.org/entity/Q919536,OPERATIVO,40.3619801,-3.69470998,CALLE,LILLO,50,28041,268130,50_LTS_EX
516228,516228_GEO,516228_Address_ID,175,ANGELES,,17,Villaverde,https://wikidata.org/entity/Q919536,OPERATIVO,40.3626101,-3.69781005,CALLE,SAN LUCIANO,10,28041,268136,50_LTS_EX
516231,516231_GEO,516231_Address_ID,175,ANGELES,,17,Villaverde,https://wikidata.org/entity/Q919536,OPERATIVO,40.3636201,-3.69834999,CALLE,SAN LUCIANO,9,28041,268139,50_LTS_EX
516238,516238_GEO,516238_Address_ID,175,ANGELES,,17,Villaverde,https://wikidata.org/entity/Q919536,OPERATIVO,40.36031008,-3.69468,CALLE,PAN Y TOROS,11,28041,268146,50_LTS_EX
516245,516245_GEO,516245_Address_ID,175,ANGELES,,17,Villaverde,https://wikidata.org/entity/Q919536,OPERATIVO,40.35665012,-3.69572999,AVENIDA,LA VERBENA DE LA PALOMA,43,28041,268153,50_LTS_EX
516248,516248_GEO,516248_Address_ID,175,ANGELES,,17,Villaverde,https://wikidata.org/entity/Q919536,OPERATIVO,40.35620014,-3.69367003,PASEO,GIGANTES Y CABEZUDOS,40,28041,268156,50_LTS_EX
516282,516282_GEO,516282_Address_ID,175,ANGELES,,17,Villaverde,https://wikidata.org/entity/Q919536,OPERATIVO,40.35088015,-3.69561994,CALLE,ORIO,1,28041,268194,50_LTS_EX
516284,516284_GEO,516284_Address_ID,175,ANGELES,,17,Villaverde,https://wikidata.org/entity/Q919536,OPERATIVO,40.34949716,-3.699131,CALLE,ALCOCER,30,28041,268196,50_LTS_EX
516213,516213_GEO,516213_Address_ID,175,ANGELES,,17,Villaverde,https://wikidata.org/entity/Q919536,OPERATIVO,40.3615901,-3.69991003,CALLE,LA CORTE DE FARAON,35,28041,268121,50_LTS_EX
516242,516242_GEO,516242_Address_ID,175,ANGELES,,17,Villaverde,https://wikidata.org/entity/Q919536,OPERATIVO,40.35893011,-3.69623004,AVENIDA,LA VERBENA DE LA PALOMA,12 B,28041,268150,50_LTS_EX
516247,516247_GEO,516247_Address_ID,175,ANGELES,,17,Villaverde,https://wikidata.org/entity/Q919536,OPERATIVO,40.35448009,-3.69536995,CALLE,LA ALEGRIA DE LA HUERTA,18,28041,268155,50_LTS_EX
516256,516256_GEO,516256_Address_ID,175,ANGELES,,17,Villaverde,https://wikidata.org/entity/Q919536,OPERATIVO,40.35685011,-3.70015001,CALLE,LA CANCION DEL OLVIDO,49,28041,268166,50_LTS_EX
516257,516257_GEO,516257_Address_ID,175,ANGELES,,17,Villaverde,https://wikidata.org/entity/Q919536,OPERATIVO,40.35844014,-3.69939001,CALLE,LA DEL SOTO DEL PARRAL,65,28041,268167,50_LTS_EX
516252,516252_GEO,516252_Address_ID,175,ANGELES,,17,Villaverde,https://wikidata.org/entity/Q919536,OPERATIVO,40.35219012,-3.70045002,CALLE,ANOETA,36,28041,268160,50_LTS_EX
516259,516259_GEO,516259_Address_ID,175,ANGELES,,17,Villaverde,https://wikidata.org/entity/Q919536,OPERATIVO,40.36062014,-3.69743998,CALLE,LA DEL MANOJO DE ROSAS,29,28041,268169,50_LTS_EX
516262,516262_GEO,516262_Address_ID,175,ANGELES,,17,Villaverde,https://wikidata.org/entity/Q919536,OPERATIVO,40.35545009,-3.69787001,CALLE,DOÑA FRANCISQUITA,2,28041,268172,50_LTS_EX
516269,516269_GEO,516269_Address_ID,175,ANGELES,,17,Villaverde,https://wikidata.org/entity/Q919536,OPERATIVO,40.3507901,-3.69692998,CALLE,ARECHAVALETA,1,28041,268179,50_LTS_EX
516274,516274_GEO,516274_Address_ID,175,ANGELES,,17,Villaverde,https://wikidata.org/entity/Q919536,OPERATIVO,40.34930017,-3.69687001,CALLE,AMPUERO,17,28021,268185,50_LTS_EX
516276,516276_GEO,516276_Address_ID,175,ANGELES,,17,Villaverde,https://wikidata.org/entity/Q919536,OPERATIVO,40.34974011,-3.69491996,CALLE,AMPUERO,3,28021,268187,50_LTS_EX
516296,516296_GEO,516296_Address_ID,175,ANGELES,,17,Villaverde,https://wikidata.org/entity/Q919536,OPERATIVO,40.35386313,-3.70519499,CALLE,EDUARDO BARREIROS,122,28041,268208,50_LTS_EX
518835,518835_GEO,518835_Address_ID,175,ANGELES,,17,Villaverde,https://wikidata.org/entity/Q919536,OPERATIVO,40.35482014,-3.69782995,CALLE,LA DEL MANOJO DE ROSAS,69 B,28041,270894,50_LTS_EX
516978,516978_GEO,516978_Address_ID,181,CASCO H.VALLECAS,,18,Villa de Vallecas,https://wikidata.org/entity/Q1947988,OPERATIVO,40.37959909,-3.62636096,CALLE,SIERRA DE GREDOS,18,28031,268939,50_LTS_EX
516852,516852_GEO,516852_Address_ID,175,ANGELES,,17,Villaverde,https://wikidata.org/entity/Q919536,OPERATIVO,40.36271417,-3.69404996,CALLE,LILLO,5,28041,268805,50_LTS_EX
517513,517513_GEO,517513_Address_ID,084,PILAR,,08,Fuencarral-El Pardo,https://wikidata.org/entity/Q656196,OPERATIVO,40.47318015,-3.71142003,CALLE,CHANTADA,26,28029,269497,50_LTS_EX
517798,517798_GEO,517798_Address_ID,084,PILAR,,08,Fuencarral-El Pardo,https://wikidata.org/entity/Q656196,OPERATIVO,40.47463414,-3.71306596,CALLE,PONFERRADA,10,28029,269795,50_LTS_EX
517804,517804_GEO,517804_Address_ID,084,PILAR,,08,Fuencarral-El Pardo,https://wikidata.org/entity/Q656196,OPERATIVO,40.47823116,-3.71045898,AVENIDA,MONFORTE DE LEMOS,42,28029,269801,50_LTS_EX
517811,517811_GEO,517811_Address_ID,084,PILAR,,08,Fuencarral-El Pardo,https://wikidata.org/entity/Q656196,OPERATIVO,40.47189908,-3.71257496,AVENIDA,BETANZOS,5,28029,269808,50_LTS_EX
517865,517865_GEO,517865_Address_ID,084,PILAR,,08,Fuencarral-El Pardo,https://wikidata.org/entity/Q656196,OPERATIVO,40.47878012,-3.71414999,CALLE,PUERTO DE MASPALOMAS,17,28029,269867,50_LTS_EX
517869,517869_GEO,517869_Address_ID,084,PILAR,,08,Fuencarral-El Pardo,https://wikidata.org/entity/Q656196,OPERATIVO,40.47947013,-3.71428005,CALLE,DOCTOR RAMON CASTROVIEJO,13,28029,269871,50_LTS_EX
517874,517874_GEO,517874_Address_ID,084,PILAR,,08,Fuencarral-El Pardo,https://wikidata.org/entity/Q656196,OPERATIVO,40.47736914,-3.71068702,PLAZA,RIBADEO,2,28029,269876,50_LTS_EX
517879,517879_GEO,517879_Address_ID,084,PILAR,,08,Fuencarral-El Pardo,https://wikidata.org/entity/Q656196,OPERATIVO,40.47721812,-3.71111698,PLAZA,RIBADEO,10,28029,269881,50_LTS_EX
517890,517890_GEO,517890_Address_ID,084,PILAR,,08,Fuencarral-El Pardo,https://wikidata.org/entity/Q656196,OPERATIVO,40.47804713,-3.71213903,AVENIDA,BETANZOS,53,28029,269893,50_LTS_EX
517888,517888_GEO,517888_Address_ID,084,PILAR,,08,Fuencarral-El Pardo,https://wikidata.org/entity/Q656196,OPERATIVO,40.47791711,-3.71195302,AVENIDA,MONFORTE DE LEMOS,133,28029,269891,50_LTS_EX
517892,517892_GEO,517892_Address_ID,084,PILAR,,08,Fuencarral-El Pardo,https://wikidata.org/entity/Q656196,OPERATIVO,40.47853509,-3.71227998,AVENIDA,BETANZOS,61,28029,269895,50_LTS_EX
517893,517893_GEO,517893_Address_ID,084,PILAR,,08,Fuencarral-El Pardo,https://wikidata.org/entity/Q656196,OPERATIVO,40.47908215,-3.71246402,AVENIDA,BETANZOS,65,28029,269896,50_LTS_EX
517898,517898_GEO,517898_Address_ID,084,PILAR,,08,Fuencarral-El Pardo,https://wikidata.org/entity/Q656196,OPERATIVO,40.48015013,-3.71161999,PASEO,VAGUADA,13,28029,269901,50_LTS_EX
517905,517905_GEO,517905_Address_ID,084,PILAR,,08,Fuencarral-El Pardo,https://wikidata.org/entity/Q656196,OPERATIVO,40.47786011,-3.70630996,PLAZA,ARTEIJO,8,28029,269908,50_LTS_EX
517913,517913_GEO,517913_Address_ID,084,PILAR,,08,Fuencarral-El Pardo,https://wikidata.org/entity/Q656196,OPERATIVO,40.47693514,-3.70368501,CALLE,GINZO DE LIMIA,19,28029,269916,50_LTS_EX
517908,517908_GEO,517908_Address_ID,084,PILAR,,08,Fuencarral-El Pardo,https://wikidata.org/entity/Q656196,OPERATIVO,40.47788615,-3.70817898,PLAZA,FONSAGRADA,9,28029,269911,50_LTS_EX
517919,517919_GEO,517919_Address_ID,084,PILAR,,08,Fuencarral-El Pardo,https://wikidata.org/entity/Q656196,OPERATIVO,40.4763481,-3.705933,CALLE,MELCHOR FERNANDEZ ALMAGRO,56,28029,303958,50_LTS_EX
518000,518000_GEO,518000_Address_ID,084,PILAR,,08,Fuencarral-El Pardo,https://wikidata.org/entity/Q656196,OPERATIVO,40.48266312,-3.71038394,CALLE,FERMIN CABALLERO,61,28034,270008,50_LTS_EX
518006,518006_GEO,518006_Address_ID,084,PILAR,,08,Fuencarral-El Pardo,https://wikidata.org/entity/Q656196,OPERATIVO,40.48495817,-3.70997099,AVENIDA,CARDENAL HERRERA ORIA,161,28034,270014,50_LTS_EX
517760,517760_GEO,517760_Address_ID,084,PILAR,,08,Fuencarral-El Pardo,https://wikidata.org/entity/Q656196,OPERATIVO,40.47504014,-3.71555002,CALLE,LA BAÑEZA,27,28029,269755,50_LTS_EX
517779,517779_GEO,517779_Address_ID,084,PILAR,,08,Fuencarral-El Pardo,https://wikidata.org/entity/Q656196,OPERATIVO,40.47675013,-3.71599996,AVENIDA,MONFORTE DE LEMOS,177,28029,269775,50_LTS_EX
517786,517786_GEO,517786_Address_ID,084,PILAR,,08,Fuencarral-El Pardo,https://wikidata.org/entity/Q656196,OPERATIVO,40.47686012,-3.71302994,CALLE,LA BAÑEZA,12,28029,269782,50_LTS_EX
517791,517791_GEO,517791_Address_ID,084,PILAR,,08,Fuencarral-El Pardo,https://wikidata.org/entity/Q656196,OPERATIVO,40.47649516,-3.71281101,CALLE,LA BAÑEZA,10,28029,269787,50_LTS_EX
517808,517808_GEO,517808_Address_ID,084,PILAR,,08,Fuencarral-El Pardo,https://wikidata.org/entity/Q656196,OPERATIVO,40.47472012,-3.71135004,AVENIDA,BETANZOS,37 A,28029,269805,50_LTS_EX
517815,517815_GEO,517815_Address_ID,084,PILAR,,08,Fuencarral-El Pardo,https://wikidata.org/entity/Q656196,OPERATIVO,40.47335315,-3.71427799,CALLE,SARRIA,7,28029,269812,50_LTS_EX
517813,517813_GEO,517813_Address_ID,084,PILAR,,08,Fuencarral-El Pardo,https://wikidata.org/entity/Q656196,OPERATIVO,40.47245012,-3.71043001,CALLE,CHANTADA,2,28029,269810,50_LTS_EX
517859,517859_GEO,517859_Address_ID,084,PILAR,,08,Fuencarral-El Pardo,https://wikidata.org/entity/Q656196,OPERATIVO,40.47761716,-3.71371194,CALLE,PUERTO DE MASPALOMAS,2,28029,269861,50_LTS_EX
517884,517884_GEO,517884_Address_ID,084,PILAR,,08,Fuencarral-El Pardo,https://wikidata.org/entity/Q656196,OPERATIVO,40.47768808,-3.70908402,PLAZA,VERIN,4,28029,269886,50_LTS_EX
517895,517895_GEO,517895_Address_ID,084,PILAR,,08,Fuencarral-El Pardo,https://wikidata.org/entity/Q656196,OPERATIVO,40.48005013,-3.71223099,AVENIDA,BETANZOS,75,28029,269898,50_LTS_EX
517914,517914_GEO,517914_Address_ID,084,PILAR,,08,Fuencarral-El Pardo,https://wikidata.org/entity/Q656196,OPERATIVO,40.47528014,-3.70827996,AVENIDA,EL FERROL,47,28029,269917,50_LTS_EX
517916,517916_GEO,517916_Address_ID,084,PILAR,,08,Fuencarral-El Pardo,https://wikidata.org/entity/Q656196,OPERATIVO,40.47412009,-3.70825998,AVENIDA,EL FERROL,34,28029,269919,50_LTS_EX
517918,517918_GEO,517918_Address_ID,084,PILAR,,08,Fuencarral-El Pardo,https://wikidata.org/entity/Q656196,OPERATIVO,40.47557012,-3.70414005,CALLE,GINZO DE LIMIA,7,28029,269921,50_LTS_EX
517921,517921_GEO,517921_Address_ID,084,PILAR,,08,Fuencarral-El Pardo,https://wikidata.org/entity/Q656196,OPERATIVO,40.47274109,-3.70608197,CALLE,RIBADAVIA,16,28029,269925,50_LTS_EX
517909,517909_GEO,517909_Address_ID,084,PILAR,,08,Fuencarral-El Pardo,https://wikidata.org/entity/Q656196,OPERATIVO,40.47898108,-3.70517602,PLAZA,MONDARIZ,1,28029,269912,50_LTS_EX
517910,517910_GEO,517910_Address_ID,084,PILAR,,08,Fuencarral-El Pardo,https://wikidata.org/entity/Q656196,OPERATIVO,40.47854012,-3.70494997,PLAZA,MONDARIZ,6,28029,269913,50_LTS_EX
517997,517997_GEO,517997_Address_ID,084,PILAR,,08,Fuencarral-El Pardo,https://wikidata.org/entity/Q656196,OPERATIVO,40.48120608,-3.71097395,CALLE,SANTIAGO DE COMPOSTELA,72,28034,270005,50_LTS_EX
517996,517996_GEO,517996_Address_ID,084,PILAR,,08,Fuencarral-El Pardo,https://wikidata.org/entity/Q656196,OPERATIVO,40.48098113,-3.71120895,CALLE,SANTIAGO DE COMPOSTELA,72,28034,270004,50_LTS_EX
518001,518001_GEO,518001_Address_ID,084,PILAR,,08,Fuencarral-El Pardo,https://wikidata.org/entity/Q656196,OPERATIVO,40.48227415,-3.71159496,CALLE,FERMIN CABALLERO,67,28034,270009,50_LTS_EX
518004,518004_GEO,518004_Address_ID,084,PILAR,,08,Fuencarral-El Pardo,https://wikidata.org/entity/Q656196,OPERATIVO,40.48313812,-3.71298097,CALLE,UBEDA,17,28034,270012,50_LTS_EX
518504,518504_GEO,518504_Address_ID,175,ANGELES,,17,Villaverde,https://wikidata.org/entity/Q919536,OPERATIVO,40.35282011,-3.69889,CALLE,LA DEL MANOJO DE ROSAS,120,28041,270536,50_LTS_EX
518539,518539_GEO,518539_Address_ID,084,PILAR,,08,Fuencarral-El Pardo,https://wikidata.org/entity/Q656196,OPERATIVO,40.47372808,-3.70250805,AVENIDA,EL FERROL,5,28029,270572,50_LTS_EX
524202,524202_GEO,524202_Address_ID,175,ANGELES,,17,Villaverde,https://wikidata.org/entity/Q919536,OPERATIVO,40.35337017,-3.69976003,CALLE,ANOETA,24,28041,278011,50_LTS_EX
524160,524160_GEO,524160_Address_ID,175,ANGELES,,17,Villaverde,https://wikidata.org/entity/Q919536,OPERATIVO,40.35517014,-3.70084003,CALLE,HERMANDAD DE DONANTES DE SANGRE,7,28041,277966,50_LTS_EX
525073,525073_GEO,525073_Address_ID,175,ANGELES,,17,Villaverde,https://wikidata.org/entity/Q919536,OPERATIVO,40.34888009,-3.69555005,CALLE,PIMIENTA,17,28021,279948,50_LTS_EX
525524,525524_GEO,525524_Address_ID,175,ANGELES,,17,Villaverde,https://wikidata.org/entity/Q919536,OPERATIVO,40.35136016,-3.69382003,CALLE,ALCOCER,2,28041,282905,50_LTS_EX
525800,525800_GEO,525800_Address_ID,175,ANGELES,,17,Villaverde,https://wikidata.org/entity/Q919536,OPERATIVO,40.36165115,-3.69751397,CALLE,LILLO,10,28041,283191,50_LTS_EX
523369,523369_GEO,523369_Address_ID,084,PILAR,,08,Fuencarral-El Pardo,https://wikidata.org/entity/Q656196,OPERATIVO,40.47625008,-3.71073999,PLAZA,TUY,7,28029,277092,50_LTS_EX
526627,526627_GEO,526627_Address_ID,175,ANGELES,,17,Villaverde,https://wikidata.org/entity/Q919536,OPERATIVO,40.35889009,-3.69721994,CALLE,LA DEL MANOJO DE ROSAS,37,28041,284197,50_LTS_EX
527007,527007_GEO,527007_Address_ID,175,ANGELES,,17,Villaverde,https://wikidata.org/entity/Q919536,OPERATIVO,40.35245011,-3.70222001,CALLE,LA PICARA MOLINERA,89,28041,291526,50_LTS_EX
527979,527979_GEO,527979_Address_ID,181,CASCO H.VALLECAS,,18,Villa de Vallecas,https://wikidata.org/entity/Q1947988,OPERATIVO,40.36852012,-3.63061,CALLE,PERALES DEL RIO,4,28031,294675,50_LTS_EX
527911,527911_GEO,527911_Address_ID,175,ANGELES,,17,Villaverde,https://wikidata.org/entity/Q919536,OPERATIVO,40.35507012,-3.69363996,PASEO,GIGANTES Y CABEZUDOS,48,28041,294191,50_LTS_EX
528076,528076_GEO,528076_Address_ID,175,ANGELES,,17,Villaverde,https://wikidata.org/entity/Q919536,OPERATIVO,40.35627014,-3.69541,CALLE,BOHEMIOS,7,28041,295034,50_LTS_EX
8931039,8931039_GEO,8931039_Address_ID,171,VILLAVERDE ALTO C.H.,,17,Villaverde,https://wikidata.org/entity/Q919536,OPERATIVO,40.33655512,-3.71842099,CALLE,PIÑUECAR,30,28021,330854,50_LTS_ZV_EX
8934235,8934235_GEO,8934235_Address_ID,171,VILLAVERDE ALTO C.H.,,17,Villaverde,https://wikidata.org/entity/Q919536,OPERATIVO,40.33448413,-3.71814599,CALLE,BERZOSA DE LOZOYA,14,28021,330856,50_LTS_ZV_EX
8931797,8931797_GEO,8931797_Address_ID,213,CASCO H.BARAJAS,,21,Barajas,https://wikidata.org/entity/Q807230,OPERATIVO,40.47564109,-3.582063,PLAZA,PAJARONES,3,28042,329856,50_LTS_ZV_EX
8934329,8934329_GEO,8934329_Address_ID,171,VILLAVERDE ALTO C.H.,,17,Villaverde,https://wikidata.org/entity/Q919536,OPERATIVO,40.34181013,-3.70102999,AVENIDA,GRAN VIA DE VILLAVERDE,10,28021,330846,50_LTS_ZV_EX
8972281,8972281_GEO,8972281_Address_ID,171,VILLAVERDE ALTO C.H.,,17,Villaverde,https://wikidata.org/entity/Q919536,OPERATIVO,40.35629314,-3.71781899,CALLE,VERDE VIENTO,69,28021,330704,50_LTS_ZV_EX
8972439,8972439_GEO,8972439_Address_ID,191,CASCO H.VICALVARO,,19,Vicálvaro,https://wikidata.org/entity/Q589403,OPERATIVO,40.38643011,-3.60510299,CALLE,CERRO DE ALMODOVAR,1,28031,330637,50_LTS_ZV_EX
8972482,8972482_GEO,8972482_Address_ID,171,VILLAVERDE ALTO C.H.,,17,Villaverde,https://wikidata.org/entity/Q919536,OPERATIVO,40.36097315,-3.71560299,AVENIDA,RAFAELA YBARRA,135,28041,330711,50_LTS_ZV_EX
8972495,8972495_GEO,8972495_Address_ID,181,CASCO H.VALLECAS,,18,Villa de Vallecas,https://wikidata.org/entity/Q1947988,OPERATIVO,40.37778311,-3.622174,CALLE,MONTE AYA,9,28031,330596,50_LTS_ZV_EX
8972555,8972555_GEO,8972555_Address_ID,181,CASCO H.VALLECAS,,18,Villa de Vallecas,https://wikidata.org/entity/Q1947988,OPERATIVO,40.38285012,-3.619439,CAMINO,VASARES,2,28031,330643,50_LTS_ZV_EX
8972642,8972642_GEO,8972642_Address_ID,191,CASCO H.VICALVARO,,19,Vicálvaro,https://wikidata.org/entity/Q589403,OPERATIVO,40.40848811,-3.60499599,CALLE,ARROYO DEL HOYO,7,28032,330439,50_LTS_ZV_EX
8972710,8972710_GEO,8972710_Address_ID,191,CASCO H.VICALVARO,,19,Vicálvaro,https://wikidata.org/entity/Q589403,OPERATIVO,40.41060412,-3.608146,CALLE,VEREDA DEL PINAR,1,28032,330438,50_LTS_ZV_EX
8972757,8972757_GEO,8972757_Address_ID,191,CASCO H.VICALVARO,,19,Vicálvaro,https://wikidata.org/entity/Q589403,OPERATIVO,40.40911416,-3.616404,AVENIDA,DAROCA,296,28032,330395,50_LTS_ZV_EX
8972772,8972772_GEO,8972772_Address_ID,191,CASCO H.VICALVARO,,19,Vicálvaro,https://wikidata.org/entity/Q589403,OPERATIVO,40.41175017,-3.61188399,CALLE,LARDERO,11,28032,330265,50_LTS_ZV_EX
8972785,8972785_GEO,8972785_Address_ID,191,CASCO H.VICALVARO,,19,Vicálvaro,https://wikidata.org/entity/Q589403,OPERATIVO,40.41137413,-3.613704,CALLE,EZCARAY,68,28032,330399,50_LTS_ZV_EX
8972801,8972801_GEO,8972801_Address_ID,191,CASCO H.VICALVARO,,19,Vicálvaro,https://wikidata.org/entity/Q589403,OPERATIVO,40.41483011,-3.61188399,AVENIDA,CANILLEJAS A VICALVARO,193,28032,330255,50_LTS_ZV_EX
8972819,8972819_GEO,8972819_Address_ID,191,CASCO H.VICALVARO,,19,Vicálvaro,https://wikidata.org/entity/Q589403,OPERATIVO,40.40946014,-3.61568899,AVENIDA,DAROCA,301,28032,330396,50_LTS_ZV_EX
8972858,8972858_GEO,8972858_Address_ID,181,CASCO H.VALLECAS,,18,Villa de Vallecas,https://wikidata.org/entity/Q1947988,OPERATIVO,40.37400717,-3.63425499,CALLE,EL SITIO DE BALER,11,28031,330588,50_LTS_ZV_EX
8972185,8972185_GEO,8972185_Address_ID,181,CASCO H.VALLECAS,,18,Villa de Vallecas,https://wikidata.org/entity/Q1947988,OPERATIVO,40.37009617,-3.621251,CALLE,FUENTIDUEÑA,49,28031,330594,50_LTS_ZV_EX
8972205,8972205_GEO,8972205_Address_ID,171,VILLAVERDE ALTO C.H.,,17,Villaverde,https://wikidata.org/entity/Q919536,OPERATIVO,40.35319111,-3.70734999,CALLE,LAGUNAS DE NEILA,2,28041,330712,50_LTS_ZV_EX
8972213,8972213_GEO,8972213_Address_ID,171,VILLAVERDE ALTO C.H.,,17,Villaverde,https://wikidata.org/entity/Q919536,OPERATIVO,40.36058811,-3.71738999,AVENIDA,RAFAELA YBARRA,130,28041,330709,50_LTS_ZV_EX
8972942,8972942_GEO,8972942_Address_ID,191,CASCO H.VICALVARO,,19,Vicálvaro,https://wikidata.org/entity/Q589403,OPERATIVO,40.41194509,-3.614033,CALLE,EZCARAY,68,28032,330272,50_LTS_ZV_EX
8972960,8972960_GEO,8972960_Address_ID,191,CASCO H.VICALVARO,,19,Vicálvaro,https://wikidata.org/entity/Q589403,OPERATIVO,40.40742312,-3.59438799,CALLE,ABAD JUAN CATALAN,58,28032,330446,50_LTS_ZV_EX
8972974,8972974_GEO,8972974_Address_ID,191,CASCO H.VICALVARO,,19,Vicálvaro,https://wikidata.org/entity/Q589403,OPERATIVO,40.41159912,-3.618566,AVENIDA,DAROCA,299,28032,330278,50_LTS_ZV_EX
8973005,8973005_GEO,8973005_Address_ID,191,CASCO H.VICALVARO,,19,Vicálvaro,https://wikidata.org/entity/Q589403,OPERATIVO,40.4073411,-3.590862,CALLE,ABAD JUAN CATALAN,74,28032,330448,50_LTS_ZV_EX
8972238,8972238_GEO,8972238_Address_ID,171,VILLAVERDE ALTO C.H.,,17,Villaverde,https://wikidata.org/entity/Q919536,OPERATIVO,40.35896914,-3.71762699,AVENIDA,RAFAELA YBARRA,130,28041,330708,50_LTS_ZV_EX
8973063,8973063_GEO,8973063_Address_ID,191,CASCO H.VICALVARO,,19,Vicálvaro,https://wikidata.org/entity/Q589403,OPERATIVO,40.40802209,-3.591409,CALLE,ABAD JUAN CATALAN,70,28032,330447,50_LTS_ZV_EX
8973152,8973152_GEO,8973152_Address_ID,191,CASCO H.VICALVARO,,19,Vicálvaro,https://wikidata.org/entity/Q589403,OPERATIVO,40.40094213,-3.60765299,CALLE,LA TENERIA,1,28032,330457,50_LTS_ZV_EX
8972253,8972253_GEO,8972253_Address_ID,171,VILLAVERDE ALTO C.H.,,17,Villaverde,https://wikidata.org/entity/Q919536,OPERATIVO,40.35823314,-3.71792499,AUTOVÍA,A-42,7000 EN,28021,330707,50_LTS_ZV_EX
8973183,8973183_GEO,8973183_Address_ID,191,CASCO H.VICALVARO,,19,Vicálvaro,https://wikidata.org/entity/Q589403,OPERATIVO,40.40510714,-3.599503,CALLE,HELENA DE TROYA,15,28032,330443,50_LTS_ZV_EX
8972274,8972274_GEO,8972274_Address_ID,171,VILLAVERDE ALTO C.H.,,17,Villaverde,https://wikidata.org/entity/Q919536,OPERATIVO,40.35730416,-3.717556,CALLE,VERDE VIENTO,69,28021,330705,50_LTS_ZV_EX
8972290,8972290_GEO,8972290_Address_ID,181,CASCO H.VALLECAS,,18,Villa de Vallecas,https://wikidata.org/entity/Q1947988,OPERATIVO,40.36869715,-3.63172699,CALLE,PERALES DEL RIO,4,28031,330589,50_LTS_ZV_EX
8972320,8972320_GEO,8972320_Address_ID,181,CASCO H.VALLECAS,,18,Villa de Vallecas,https://wikidata.org/entity/Q1947988,OPERATIVO,40.37175915,-3.62496499,CALLE,NAVAMURES,10,28031,330578,50_LTS_ZV_EX
8973511,8973511_GEO,8973511_Address_ID,084,PILAR,,08,Fuencarral-El Pardo,https://wikidata.org/entity/Q656196,OPERATIVO,40.47893517,-3.71179896,AVENIDA,MONFORTE DE LEMOS,42,28029,330311,50_LTS_ZV_EX
8973566,8973566_GEO,8973566_Address_ID,191,CASCO H.VICALVARO,,19,Vicálvaro,https://wikidata.org/entity/Q589403,OPERATIVO,40.41012414,-3.61558099,CALLE,EZCARAY,3,28032,330397,50_LTS_ZV_EX
8973568,8973568_GEO,8973568_Address_ID,191,CASCO H.VICALVARO,,19,Vicálvaro,https://wikidata.org/entity/Q589403,OPERATIVO,40.41126013,-3.616572,AVENIDA,DAROCA,299,28032,330282,50_LTS_ZV_EX
8973630,8973630_GEO,8973630_Address_ID,171,VILLAVERDE ALTO C.H.,,17,Villaverde,https://wikidata.org/entity/Q919536,OPERATIVO,40.34779715,-3.70219099,CALLE,SAN JENARO,17 C,28021,330715,50_LTS_ZV_EX
8973918,8973918_GEO,8973918_Address_ID,191,CASCO H.VICALVARO,,19,Vicálvaro,https://wikidata.org/entity/Q589403,OPERATIVO,40.40676012,-3.60539999,CALLE,VILLAJIMENA,28,28032,330440,50_LTS_ZV_EX
8972609,8972609_GEO,8972609_Address_ID,181,CASCO H.VALLECAS,,18,Villa de Vallecas,https://wikidata.org/entity/Q1947988,OPERATIVO,40.37303716,-3.62430399,CALLE,PUERTO DE PORZUNA,46,28031,330580,50_LTS_ZV_EX
8972736,8972736_GEO,8972736_Address_ID,191,CASCO H.VICALVARO,,19,Vicálvaro,https://wikidata.org/entity/Q589403,OPERATIVO,40.4111541,-3.609298,CALLE,LARDERO,4,28032,330437,50_LTS_ZV_EX
8972740,8972740_GEO,8972740_Address_ID,191,CASCO H.VICALVARO,,19,Vicálvaro,https://wikidata.org/entity/Q589403,OPERATIVO,40.41475915,-3.616118,CALLE,VERSALLES,61,28032,330259,50_LTS_ZV_EX
8972754,8972754_GEO,8972754_Address_ID,181,CASCO H.VALLECAS,,18,Villa de Vallecas,https://wikidata.org/entity/Q1947988,OPERATIVO,40.37541609,-3.61690499,CAMINO,SUERTE,44,28031,330648,50_LTS_ZV_EX
8972776,8972776_GEO,8972776_Address_ID,191,CASCO H.VICALVARO,,19,Vicálvaro,https://wikidata.org/entity/Q589403,OPERATIVO,40.41223512,-3.615519,CALLE,EZCARAY,66,28032,330276,50_LTS_ZV_EX
8972804,8972804_GEO,8972804_Address_ID,191,CASCO H.VICALVARO,,19,Vicálvaro,https://wikidata.org/entity/Q589403,OPERATIVO,40.41048116,-3.61463399,CALLE,EZCARAY,3,28032,330398,50_LTS_ZV_EX
8972860,8972860_GEO,8972860_Address_ID,191,CASCO H.VICALVARO,,19,Vicálvaro,https://wikidata.org/entity/Q589403,OPERATIVO,40.41662713,-3.61173299,AVENIDA,CANILLEJAS A VICALVARO,102,28032,330287,50_LTS_ZV_EX
8972877,8972877_GEO,8972877_Address_ID,191,CASCO H.VICALVARO,,19,Vicálvaro,https://wikidata.org/entity/Q589403,OPERATIVO,40.41269512,-3.61263499,CALLE,EZCARAY,76,28032,330269,50_LTS_ZV_EX
8972924,8972924_GEO,8972924_Address_ID,191,CASCO H.VICALVARO,,19,Vicálvaro,https://wikidata.org/entity/Q589403,OPERATIVO,40.39566112,-3.600507,CALLE,DEHESA VIEJA,2,28052,330456,50_LTS_ZV_EX
8972930,8972930_GEO,8972930_Address_ID,191,CASCO H.VICALVARO,,19,Vicálvaro,https://wikidata.org/entity/Q589403,OPERATIVO,40.40444212,-3.59291799,CALLE,ABAD JUAN CATALAN,14,28032,330449,50_LTS_ZV_EX
8972937,8972937_GEO,8972937_Address_ID,191,CASCO H.VICALVARO,,19,Vicálvaro,https://wikidata.org/entity/Q589403,OPERATIVO,40.39514109,-3.598043,CALLE,DEHESA VIEJA,8 F,28052,330455,50_LTS_ZV_EX
8972979,8972979_GEO,8972979_Address_ID,191,CASCO H.VICALVARO,,19,Vicálvaro,https://wikidata.org/entity/Q589403,OPERATIVO,40.40835211,-3.61658599,AVENIDA,DAROCA,296,28032,330394,50_LTS_ZV_EX
8972994,8972994_GEO,8972994_Address_ID,191,CASCO H.VICALVARO,,19,Vicálvaro,https://wikidata.org/entity/Q589403,OPERATIVO,40.4057131,-3.60270699,CALLE,JARDIN DE LA DUQUESA,30,28032,330441,50_LTS_ZV_EX
8973059,8973059_GEO,8973059_Address_ID,191,CASCO H.VICALVARO,,19,Vicálvaro,https://wikidata.org/entity/Q589403,OPERATIVO,40.40653317,-3.59875899,CALLE,SEPIOLITA,7,28032,330445,50_LTS_ZV_EX
8973079,8973079_GEO,8973079_Address_ID,191,CASCO H.VICALVARO,,19,Vicálvaro,https://wikidata.org/entity/Q589403,OPERATIVO,40.40656014,-3.612835,CALLE,CALAHORRA,15,28032,330392,50_LTS_ZV_EX
8973082,8973082_GEO,8973082_Address_ID,191,CASCO H.VICALVARO,,19,Vicálvaro,https://wikidata.org/entity/Q589403,OPERATIVO,40.40862411,-3.615703,AVENIDA,DAROCA,301,28032,330393,50_LTS_ZV_EX
8976801,8976801_GEO,8976801_Address_ID,171,VILLAVERDE ALTO C.H.,,17,Villaverde,https://wikidata.org/entity/Q919536,OPERATIVO,40.34108514,-3.70480094,CALLE,SAN TARSICIO,2,28021,330841,50_LTS_ZV_EX
8973227,8973227_GEO,8973227_Address_ID,191,CASCO H.VICALVARO,,19,Vicálvaro,https://wikidata.org/entity/Q589403,OPERATIVO,40.40302012,-3.60121599,CALLE,SAN CIPRIANO,74,28032,330442,50_LTS_ZV_EX
8976802,8976802_GEO,8976802_Address_ID,171,VILLAVERDE ALTO C.H.,,17,Villaverde,https://wikidata.org/entity/Q919536,OPERATIVO,40.34121716,-3.70618199,AVENIDA,REAL DE PINTO,82,28021,330843,50_LTS_ZV_EX
8976813,8976813_GEO,8976813_Address_ID,171,VILLAVERDE ALTO C.H.,,17,Villaverde,https://wikidata.org/entity/Q919536,OPERATIVO,40.35701909,-3.72009599,CALLE,VERDE VIENTO,69,28021,330800,50_LTS_ZV_EX
8976815,8976815_GEO,8976815_Address_ID,171,VILLAVERDE ALTO C.H.,,17,Villaverde,https://wikidata.org/entity/Q919536,OPERATIVO,40.35719109,-3.71874699,AUTOVÍA,A-42,7000 EN,28021,330801,50_LTS_ZV_EX
8973317,8973317_GEO,8973317_Address_ID,181,CASCO H.VALLECAS,,18,Villa de Vallecas,https://wikidata.org/entity/Q1947988,OPERATIVO,40.36777317,-3.637425,CALLE,SIERRA DE LA DEMANDA,27,28031,330591,50_LTS_ZV_EX
8973345,8973345_GEO,8973345_Address_ID,181,CASCO H.VALLECAS,,18,Villa de Vallecas,https://wikidata.org/entity/Q1947988,OPERATIVO,40.36723309,-3.638026,CALLE,MORATA DE TAJUÑA,37,28031,330592,50_LTS_ZV_EX
8973350,8973350_GEO,8973350_Address_ID,191,CASCO H.VICALVARO,,19,Vicálvaro,https://wikidata.org/entity/Q589403,OPERATIVO,40.40450708,-3.59807,CALLE,MINERVA,2,28032,330444,50_LTS_ZV_EX
8976819,8976819_GEO,8976819_Address_ID,171,VILLAVERDE ALTO C.H.,,17,Villaverde,https://wikidata.org/entity/Q919536,OPERATIVO,40.3563741,-3.71615399,CALLE,VERDE VIENTO,31,28021,330809,50_LTS_ZV_EX
8976823,8976823_GEO,8976823_Address_ID,171,VILLAVERDE ALTO C.H.,,17,Villaverde,https://wikidata.org/entity/Q919536,OPERATIVO,40.35589114,-3.713804,AVENIDA,RAFAELA YBARRA,133,28041,330814,50_LTS_ZV_EX
8976860,8976860_GEO,8976860_Address_ID,171,VILLAVERDE ALTO C.H.,,17,Villaverde,https://wikidata.org/entity/Q919536,OPERATIVO,40.34821211,-3.720111,PASEO,PLATA Y CASTAÑAR,5,28021,330826,50_LTS_ZV_EX
8973401,8973401_GEO,8973401_Address_ID,181,CASCO H.VALLECAS,,18,Villa de Vallecas,https://wikidata.org/entity/Q1947988,OPERATIVO,40.36809416,-3.636656,CALLE,ISLA DE GUAM,36,28031,330590,50_LTS_ZV_EX
8973457,8973457_GEO,8973457_Address_ID,191,CASCO H.VICALVARO,,19,Vicálvaro,https://wikidata.org/entity/Q589403,OPERATIVO,40.40505417,-3.616261,CAMINO,VIEJO DE VICALVARO,16,28032,330390,50_LTS_ZV_EX
8976862,8976862_GEO,8976862_Address_ID,171,VILLAVERDE ALTO C.H.,,17,Villaverde,https://wikidata.org/entity/Q919536,OPERATIVO,40.34337113,-3.713834,CALLE,ASTILLERO,3,28021,330836,50_LTS_ZV_EX
8976891,8976891_GEO,8976891_Address_ID,171,VILLAVERDE ALTO C.H.,,17,Villaverde,https://wikidata.org/entity/Q919536,OPERATIVO,40.34172114,-3.705444,CALLE,LENGUAS,6 D,28021,330900,50_LTS_ZV_EX
8976896,8976896_GEO,8976896_Address_ID,171,VILLAVERDE ALTO C.H.,,17,Villaverde,https://wikidata.org/entity/Q919536,OPERATIVO,40.34846411,-3.71783399,PASEO,PLATA Y CASTAÑAR,5,28021,330891,50_LTS_ZV_EX
8973589,8973589_GEO,8973589_Address_ID,171,VILLAVERDE ALTO C.H.,,17,Villaverde,https://wikidata.org/entity/Q919536,OPERATIVO,40.34741212,-3.70294499,CALLE,SAN JENARO,16,28021,330714,50_LTS_ZV_EX
8973618,8973618_GEO,8973618_Address_ID,171,VILLAVERDE ALTO C.H.,,17,Villaverde,https://wikidata.org/entity/Q919536,OPERATIVO,40.34780909,-3.703029,CALLE,SAN JENARO,17 F,28021,330713,50_LTS_ZV_EX
8976904,8976904_GEO,8976904_Address_ID,171,VILLAVERDE ALTO C.H.,,17,Villaverde,https://wikidata.org/entity/Q919536,OPERATIVO,40.34840112,-3.71864899,PASEO,PLATA Y CASTAÑAR,5,28021,330829,50_LTS_ZV_EX
8976909,8976909_GEO,8976909_Address_ID,171,VILLAVERDE ALTO C.H.,,17,Villaverde,https://wikidata.org/entity/Q919536,OPERATIVO,40.34416913,-3.71148099,CALLE,VILLASTAR,6,28021,330838,50_LTS_ZV_EX
8976911,8976911_GEO,8976911_Address_ID,171,VILLAVERDE ALTO C.H.,,17,Villaverde,https://wikidata.org/entity/Q919536,OPERATIVO,40.33170315,-3.713576,AVENIDA,REAL DE PINTO,101,28021,330859,50_LTS_ZV_EX
8976920,8976920_GEO,8976920_Address_ID,171,VILLAVERDE ALTO C.H.,,17,Villaverde,https://wikidata.org/entity/Q919536,OPERATIVO,40.34664209,-3.71937199,CALLE,PROVISIONAL FERROVIARIOS UNO,13,28021,330823,50_LTS_ZV_EX
8973920,8973920_GEO,8973920_Address_ID,171,VILLAVERDE ALTO C.H.,,17,Villaverde,https://wikidata.org/entity/Q919536,OPERATIVO,40.33562416,-3.70173099,CALLE,SAN EUSTAQUIO,14,28021,329654,50_LTS_ZV_EX
8974046,8974046_GEO,8974046_Address_ID,181,CASCO H.VALLECAS,,18,Villa de Vallecas,https://wikidata.org/entity/Q1947988,OPERATIVO,40.37274709,-3.62474899,CALLE,PUERTO DE PORZUNA,50,28031,330579,50_LTS_ZV_EX
8974548,8974548_GEO,8974548_Address_ID,084,PILAR,,08,Fuencarral-El Pardo,https://wikidata.org/entity/Q656196,OPERATIVO,40.47867412,-3.709141,AVENIDA,MONFORTE DE LEMOS,38 B,28029,329970,50_LTS_ZV_EX
8974629,8974629_GEO,8974629_Address_ID,191,CASCO H.VICALVARO,,19,Vicálvaro,https://wikidata.org/entity/Q589403,OPERATIVO,40.39350914,-3.591077,CALLE,DEHESA VIEJA,52,28052,330454,50_LTS_ZV_EX
8976793,8976793_GEO,8976793_Address_ID,171,VILLAVERDE ALTO C.H.,,17,Villaverde,https://wikidata.org/entity/Q919536,OPERATIVO,40.3465411,-3.717182,PASEO,FERROVIARIOS,39,28021,330833,50_LTS_ZV_EX
8976794,8976794_GEO,8976794_Address_ID,171,VILLAVERDE ALTO C.H.,,17,Villaverde,https://wikidata.org/entity/Q919536,OPERATIVO,40.3469451,-3.72025,CALLE,PROVISIONAL FERROVIARIOS UNO,13,28021,330825,50_LTS_ZV_EX
8976800,8976800_GEO,8976800_Address_ID,171,VILLAVERDE ALTO C.H.,,17,Villaverde,https://wikidata.org/entity/Q919536,OPERATIVO,40.34384711,-3.69836299,CALLE,TREN OBRERO,13,28021,330848,50_LTS_ZV_EX
8976803,8976803_GEO,8976803_Address_ID,171,VILLAVERDE ALTO C.H.,,17,Villaverde,https://wikidata.org/entity/Q919536,OPERATIVO,40.35754615,-3.71463,AVENIDA,RAFAELA YBARRA,133,28041,330812,50_LTS_ZV_EX
8976810,8976810_GEO,8976810_Address_ID,171,VILLAVERDE ALTO C.H.,,17,Villaverde,https://wikidata.org/entity/Q919536,OPERATIVO,40.35479914,-3.71670299,CALLE,BAJAMAR,1,28021,330807,50_LTS_ZV_EX
8976811,8976811_GEO,8976811_Address_ID,171,VILLAVERDE ALTO C.H.,,17,Villaverde,https://wikidata.org/entity/Q919536,OPERATIVO,40.35489608,-3.71888,CALLE,VERDE VIENTO,69,28021,330803,50_LTS_ZV_EX
8976812,8976812_GEO,8976812_Address_ID,171,VILLAVERDE ALTO C.H.,,17,Villaverde,https://wikidata.org/entity/Q919536,OPERATIVO,40.34822114,-3.716235,PASEO,PLATA Y CASTAÑAR,3,28021,330819,50_LTS_ZV_EX
8976818,8976818_GEO,8976818_Address_ID,171,VILLAVERDE ALTO C.H.,,17,Villaverde,https://wikidata.org/entity/Q919536,OPERATIVO,40.3595821,-3.71874799,AVENIDA,RAFAELA YBARRA,130,28041,330798,50_LTS_ZV_EX
8976827,8976827_GEO,8976827_Address_ID,171,VILLAVERDE ALTO C.H.,,17,Villaverde,https://wikidata.org/entity/Q919536,OPERATIVO,40.35330616,-3.707822,CALLE,JOSE PEREZ,2,28041,330889,50_LTS_ZV_EX
8976844,8976844_GEO,8976844_Address_ID,171,VILLAVERDE ALTO C.H.,,17,Villaverde,https://wikidata.org/entity/Q919536,OPERATIVO,40.34766814,-3.71890999,PASEO,PLATA Y CASTAÑAR,5,28021,330831,50_LTS_ZV_EX
8976861,8976861_GEO,8976861_Address_ID,171,VILLAVERDE ALTO C.H.,,17,Villaverde,https://wikidata.org/entity/Q919536,OPERATIVO,40.3316081,-3.71262699,CALLE,LAGUNA DALGA,38,28021,330862,50_LTS_ZV_EX
8976867,8976867_GEO,8976867_Address_ID,171,VILLAVERDE ALTO C.H.,,17,Villaverde,https://wikidata.org/entity/Q919536,OPERATIVO,40.33174415,-3.705705,CALLE,LAGUNA DALGA,16,28021,330864,50_LTS_ZV_EX
8976898,8976898_GEO,8976898_Address_ID,171,VILLAVERDE ALTO C.H.,,17,Villaverde,https://wikidata.org/entity/Q919536,OPERATIVO,40.34261913,-3.71605,CALLE,SAN AURELIANO,9,28021,330898,50_LTS_ZV_EX
8976900,8976900_GEO,8976900_Address_ID,171,VILLAVERDE ALTO C.H.,,17,Villaverde,https://wikidata.org/entity/Q919536,OPERATIVO,40.34661716,-3.71833899,CALLE,PROVISIONAL FERROVIARIOS UNO,13,28021,330821,50_LTS_ZV_EX
8976903,8976903_GEO,8976903_Address_ID,171,VILLAVERDE ALTO C.H.,,17,Villaverde,https://wikidata.org/entity/Q919536,OPERATIVO,40.34890513,-3.71977299,PASEO,PLATA Y CASTAÑAR,5,28021,330828,50_LTS_ZV_EX
8976905,8976905_GEO,8976905_Address_ID,171,VILLAVERDE ALTO C.H.,,17,Villaverde,https://wikidata.org/entity/Q919536,OPERATIVO,40.33343314,-3.70664199,CALLE,SAN ERASMO,42,28021,330868,50_LTS_ZV_EX
8976906,8976906_GEO,8976906_Address_ID,171,VILLAVERDE ALTO C.H.,,17,Villaverde,https://wikidata.org/entity/Q919536,OPERATIVO,40.33184611,-3.70173899,CALLE,LAGUNA DALGA,2,28021,330865,50_LTS_ZV_EX
8976908,8976908_GEO,8976908_Address_ID,171,VILLAVERDE ALTO C.H.,,17,Villaverde,https://wikidata.org/entity/Q919536,OPERATIVO,40.33398117,-3.70627299,CALLE,SAN ERASMO,19,28021,330867,50_LTS_ZV_EX
8976910,8976910_GEO,8976910_Address_ID,171,VILLAVERDE ALTO C.H.,,17,Villaverde,https://wikidata.org/entity/Q919536,OPERATIVO,40.34770511,-3.71797599,PASEO,PLATA Y CASTAÑAR,5,28021,330832,50_LTS_ZV_EX
8976913,8976913_GEO,8976913_Address_ID,171,VILLAVERDE ALTO C.H.,,17,Villaverde,https://wikidata.org/entity/Q919536,OPERATIVO,40.33578916,-3.70096599,CALLE,RESINA,25,28021,330851,50_LTS_ZV_EX
8976915,8976915_GEO,8976915_Address_ID,171,VILLAVERDE ALTO C.H.,,17,Villaverde,https://wikidata.org/entity/Q919536,OPERATIVO,40.34162208,-3.70559899,CALLE,LENGUAS,6 D,28021,330901,50_LTS_ZV_EX
8976917,8976917_GEO,8976917_Address_ID,171,VILLAVERDE ALTO C.H.,,17,Villaverde,https://wikidata.org/entity/Q919536,OPERATIVO,40.33167913,-3.70933799,CALLE,LAGUNA DALGA,34 B,28021,330863,50_LTS_ZV_EX
